Id,Lat,Lng,Name,Count
123708040,25.081699371,121.548858643,"麥當勞北安店 McDonald's",1
138413923,25.037139381,121.549128782,"Ring Private Club",3
287816702,24.981782962,121.559038033,"叁號茶子",1
268737734,25.033951305,121.550548895,"Bach Inspiration 巴哈靈感音樂學習中心",1
373114,25.081585052,121.556336681,"焱Sonoma鐵板燒烤牛排館",15
65387240,24.998913443,121.495313644,"原燒優質原味燒肉",42
236964310,25.052145092,121.513987059,"士林夜市",3
239264259,25.093876522,121.526005952,"Taipei",1
5247081,25.032732116,121.560772955,"新光曼哈頓大樓",9
16158896,25.018446,121.48177,"Guang Fu St",4
2935470,25.058730673,121.539230619,"小江日本料理",36
258747040,24.999246917,121.485895551,"中和探索會館",5
109724,25.034085784,121.534535377,"小林食堂",7
272420511,25.083299569,121.554401339,"星巴克 大直植福門市",1
14679300,24.951887396,121.5427093,"家",2
206928456,25.032020753,121.543815941,"Roxy 99",36
12776757,25.007942407,121.522331652,"大仁耳鼻喉科",2
105280282,24.971149142,121.533624406,"鴨片粉圓",1
64138551,25.021654,121.533335,"Fucking都更公園",1
112261312,25.035049967,121.497188393,"台北地下街 美食街",7
95729358,25.042727,121.521823,"博世牙醫",2
239951610,25.027290315,121.51599894,"Le Pont 樂朋烘焙手作教室",1
279069513,25.052008775,121.534379561,"Cheers雜誌",3
576412,25.031006842,121.554512227,"通化肉圓",17
298400,25.083514617,121.602585912,"捷運大湖公園站 MRT Dahu Park Station",57
100259276,25.025259,121.553526,"老媽子麵店",2
249727759,25.043105021,121.54699192,"Howfun Hair Salon",2
780226,25.043928877,121.551915065,"Woo Taipei",25
244989859,25.045396093,121.502985574,"汐止食養山房",3
213102064,25.061862045,121.546757696,"Quel Café - 克爾‧何等的咖啡",2
241989804,25.046011286,121.515002567,"Perfume Dance 跳舞香水站前店",3
274091488,25.124758561,121.471040524,"ASUS gym",1
30938892,25.080859865,121.565461574,"Primax 致伸科技",13
63450450,25.036755899,121.549112058,"中山醫院 (Chung Shan Hospital)",2
116898680,25.026037792,121.55109107,"Oriental Curry（遠企B2美食街）",5
37674530,25.045778052,121.509658463,"台北車站千葉火鍋",2
270733790,25.12160791,121.587656074,"千蝶谷昆蟲生態農場",5
113406051,25.080111965,121.579752244,"貴族世家牛排",2
34371310,25.039830863,121.556704589,"麻膳堂",15
1125355,24.98388,121.551751,"遠東世紀ABC",5
382949,25.033345636,121.548939241,"登琪爾敦南店",1
241938422,25.028169769,121.505940429,"南機場 臭老闆 蒸的臭豆腐",1
88672785,25.056674,121.552769,"战秋风",1
268725363,25.106104446,121.594626498,"白石森活有機休閒農場",1
256743623,25.134438537,121.469285481,"台北城市科技大學  操場",1
39642692,25.021439308,121.524928679,"八拾捌茶",8
1812521,25.082938455,121.546062639,"Maryjane Pizza",70
1312137,25.056338668,121.521920864,"春漾咖啡 Spring Café",28
79227786,24.999793333,121.539049225,"建築研究所",1
662014,25.023994312,121.552913961,"公車捷運六張犁",109
140398219,25.032816,121.561665,"Adidas101",6
276527072,25.04934421,121.550134075,"Silent Disco Taiwan",1
236788251,25.049682053,121.518266288,"Da'an District",12
197423336,25.02412315,121.552144671,"7-ELEVEn(技安門市)",2
116944353,25.049300159,121.519422764,"油桐花",1
239247202,24.952799986,121.509215271,"景文餐旅大樓H棟",24
343890,25.079974356,121.575426672,"內湖高工",152
19211877,25.041185,121.548062,"石碇",31
27187081,25.008127,121.471545,"港式佶軒",2
12447242,25.063216842,121.513584358,"華西街魯肉飯/清湯瓜仔肉羹湯",2
235459370,24.989109684,121.544830929,"世新大學女生宿舍",3
48285351,25.039493561,121.501983643,"Apple 203 Breakfast",2
89666527,25.067192,121.493129,"神戶牛排",4
124600790,25.03477377,121.5384471,"KFC 肯德基",1
10523645,25.063110285,121.551776748,"台北市立圖書館松山機場智慧圖書館",1
3336329,25.003009366,121.520660669,"蔡李陸咖啡商號",1
28729,25.027893983,121.500369608,"7-ELEVEN",3
9888921,25.055978023,121.508905612,"Lin Liu-hsin Puppet Theatre Museum",9
218665514,25.052003879,121.481972778,"三重幸福水漾公園",7
7111813,25.018262109,121.531963348,"頂好 Wellcome",3
247201558,25.035621265,121.561771073,"君悅Cheers",3
1409553,25.017243012,121.537383098,"台大椰林大道",300
11417737,24.988606011,121.564603185,"三老村",6
9387696,25.027784537,121.526063798,"七五巷姐妹花早餐店",2
276433439,25.019226857,121.471424633,"板橋華江公園籃球場",1
33476307,25.080205548,121.573861182,"中國信託銀行",1
266443824,25.029245734,121.545656274,"Banana Taipei",2
134049058,25.052834576,121.592759431,"姑姑家",2
1689214,25.043138,121.565822,"滾石移動",2
258399767,25.052305069,121.593227453,"好捲早午餐",1
105257196,25.021948131,121.535743071,"台大綜合體育館 Squash Court",42
70989300,24.99021982,121.506568956,"景安黃昏市場",5
240130435,24.992340028,121.520283101,"溫暖的家 (๑•́ ₃ •̀๑) 啾咪",2
461001,25.038372235,121.519472364,"中正運動中心",459
89163,25.100950366,121.539690374,"洞天花園",6
144942057,25.081227,121.497171,"三重五常邮局",1
2142782,25.05681916,121.598081138,"藤園日本料理",5
8488848,25.105800592,121.519871645,"我家(門前沒小河)",1
1157306,25.055195573,121.531957324,"陶板屋南京東店",12
129992,25.069789938,121.527680784,"新生高架橋",67
7749180,25.027438598,121.519482969,"百達富麗",7
279071524,25.040819137,121.506733192,"艾莉絲美甲美睫工作室",1
108586687,24.994138039,121.562412592,"文山復健科診所",3
3108520,25.078400336,121.583866372,"松青超市 內湖店",10
15387482,25.06491,121.511251,"花蓮扁食",1
71514425,25.013309,121.466429,"Hana Cafe 2",12
119461,25.010999424,121.464269757,"FE21' 遠東百貨板橋店",349
1049472,24.98740007,121.549315611,"國家考場",121
40881545,25.131050421,121.49899541,"牙口",14
22345111,25.047618,121.508326,"老劉牛肉麵攤",5
251203856,25.054113562,121.525105328,"晶華鐵板燒",8
98955478,25.063143147,121.56603335,"角子虎北方水餃館",13
88097467,25.057198486,121.487349691,"85度C菜寮店",2
5965527,25.02691,121.549254,"香格里拉遠東國際飯店 遠東宴會廳",105
72550,25.020556523,121.528358459,"Taipower Building MRT Station (台電大樓捷運站)",6
106417357,25.011334985,121.591310546,"福德公墓 植葬區",8
137039110,25.082492,121.571122,"疆敬酒",7
268691561,25.084705091,121.600498842,"大湖游泳池",1
1035996,25.059276596,121.5211324,"台北市文昌宮",154
32207,25.026420593,121.53474056,"台北市大安區戶政事務所",62
236987708,25.018065974,121.530753481,"小蒙牛 - 公館店",12
845276,25.055950116,121.528282967,"中原公園",2
251103415,25.110875191,121.530304898,"多摩食堂-日式料理",5
252753043,25.070692308,121.519357421,"7-11圓泉門市",3
39644894,25.097174936,121.544468212,"觀想 Guan Xiang",4
293404903,25.017456901,121.538264222,"椰林大道辦桌",2
129620,25.047010216,121.534979241,"346倉庫餐廳",44
29639902,25.031895,121.530083,"公園裡咖啡 Café in the park",4
3873033,25.054588265,121.611609969,"Page one",1
244187518,25.030052559,121.533489358,"Mr J 滕原豆腐店",3
30508144,25.042781523,121.516261028,"二二八和平紀念公園(台北新公園)",14
5896939,25.020151614,121.528946478,"公車羅斯福辛亥路口",21
6879555,25.030625696,121.557479423,"公車光復南路口站 Bus Guangfu S. Rd. Entrance Sta.",29
1904589,25.067524,121.515941,"神密的遛狗地方",3
2882310,25.038576,121.507176,"電影大樓。",9
110964769,25.040878348,121.553114383,"麵屋武藏 虎嘯",1306
155416600,24.987046312,121.570979635,"木南公園 Munan Park",2
98666989,25.032082696,121.530602453,"曼都髮型 Mentor Hair Stylist",3
41764593,25.084287131,121.511721269,"葫東重慶路口",33
8667527,25.056090546,121.507293938,"爐煱咖啡",18
26615,25.136613601,121.50634465,"北投圖書館",1171
105262444,25.105334,121.522939,"Subway 天母家樂福店",2
4080706,25.052165645,121.541173365,"六福皇宫 留園",15
237367565,25.079884718,121.567766706,"仁寶電腦",10
3071202,25.015194,121.532929,"翠林越南餐廳（公館）",7
1043383,25.044144988,121.512872,"台灣省城隍廟",52
285068721,24.990128647,121.541076172,"景美永和豆漿",1
251940652,25.026585848,121.533993493,"象山",2
231252259,25.049080912,121.534555509,"尚月",1
270508296,25.029587203,121.562232875,"綠逗薏人-莊敬店",1
253655376,25.012476094,121.533184565,"公館二手市集",4
5548705,25.013121117,121.542845888,"台灣科技大學 第一學生宿舍",27
3932440,25.035992275,121.505789094,"龍山國民中學",21
57638586,25.006059647,121.477073669,"星巴克starbucks Coffee",47
135679837,25.049541473,121.566879272,"微風南京 Breeze NAN JIN",3
76631653,25.135586482,121.518876967,"善光寺",12
47843283,25.04090992,121.575873206,"公車捷運永春站 Bus MRT YongChun Sta.",38
1010308,25.053351019,121.537387797,"美兆台北健康管理醫學中心‎ MJ Life Taipei Center",6
9627820,24.992987,121.501048,"Guam",87
10499058,25.060434353,121.536785663,"HIM International Music Inc.",2
49883193,25.022303864,121.550421499,"親勝小火鍋",2
104720508,25.071528885,121.526297984,"花之隧道",10
1236744,24.962932094,121.539570374,"碧潭派出所",7
234934190,25.054777317,121.561902622,"Rose Mary 螺絲瑪麗",8
122045117,25.041896678,121.579618486,"丹堤咖啡",8
216063,24.987782483,121.551715428,"全聯木柵店",2
3304967,25.035132515,121.558165062,"陽春商號",9
3828233,25.047681,121.558038,"新浪台灣辦公室（美商華淵資訊）",16
83389419,25.052140937,121.548928091,"Sunworld Dynasty Hotel | Taipei 台北王朝大酒店",11
206661966,25.117068336,121.533830699,"KiKi restaurant",29
259488,24.992854679,121.517153238,"大世界豆漿",8
270376808,25.003696927,121.463695371,"後埔國小",4
55950134,25.076343472,121.599783474,"內湖星雲街Sweet Home",7
15732346,25.034148971,121.56421858,"Michael Kors 台北101專賣店",9
232464540,25.077461752,121.56809244,"國道一號 高架 松山機場",1
11016591,25.063447397,121.576636763,"Eaton Corp.",1
282320002,25.11067536,121.51466403,"7-11統勝門市",1
548729,25.054883,121.521925,"A Hair Salon",1
2068555,25.039137389,121.568769475,"行政院公共工程委員會",1
5435405,25.010901239,121.536400965,"The WALL 公館",104
135760,25.107556529,121.525038118,"Smith & Hsu (天母）",437
247105682,25.073316347,121.489611826,"清境農場",4
94008117,25.06396446,121.577361301,"uno coffee",7
106571979,25.022213421,121.534003539,"Galette 葛樂蒂咖啡館",69
2548148,25.018824891,121.531417597,"麥子磨麵公館店",15
728288,25.026971,121.484814,"華翠橋下板橋端",8
13259003,25.037095042,121.553259582,"诚品书店",23
264586194,25.097481671,121.521594887,"新光醫院10樓",1
222000687,25.053538622,121.600268325,"松山火車站 TRA Songshan Station",7
44440928,25.081466675,121.564292908,"My Coffee",2
62980747,25.06724,121.488505,"萬旺寵物世界",5
273407808,25.048996511,121.536553144,"川越駅串燒",3
2563611,25.066032,121.51607891,"中華民國路跑協會",9
271592142,25.056733238,121.561537932,"小草 作 Grassphere",3
214841419,25.136522736,121.507130438,"Beitou Hot Springs",30
74622494,25.02559166,121.53890427,"公車龍門國中站",4
109932655,24.971601,121.541273,"四季發爺",1
408114,25.051981037,121.540191892,"甜橘南京店",79
1889959,25.043048126,121.521156942,"辦公大樓",1
1254624,24.965772903,121.540806609,"七張米粉湯",26
260672786,25.049932506,121.507364236,"玉泉公園游泳池",1
946830,25.046136834,121.539848776,"中油中崙球場",25
10076821,25.057377934,121.547842026,"World Gym Elite",205
142474589,25.037791857,121.577632068,"阿幸鮮打果汁^_^",1
259416345,25.03685515,121.543937948,"復興南路博多拉麵",1
133525680,25.062965661,121.519350274,"一之軒 IJYSHENG",2
254676906,25.033138919,121.535341496,"捷運象山線上",3
24363238,25.064960296,121.53162279,"上品魚翅",9
4812534,25.032658877,121.530606984,"MORITA CAFE",129
11407898,25.050575,121.543417,"御采日本料理",3
10333673,25.049354153,121.571704513,"八德立體停車場",11
1703513,25.051546,121.555099,"Era Ogilvy (世紀奧美公關顧問)",19
266524954,25.038223284,121.544818792,"仁愛路四段",1
100907068,25.024489823,121.522456164,"郭記牛肉麵店",2
82813792,25.033871203,121.527480056,"義美食品",1
113484356,24.974675699,121.530970444,"珍鱻平價海鮮",1
768836,25.110224141,121.511805453,"石牌派出所",4
108277105,24.998999,121.46225,"阿舜牛排",2
9500415,25.084581603,121.519871645,"我家",7
237668078,25.107876556,121.528939112,"森巴披薩坊台北 - Samba Pizza Taipei",1
125653,25.022613351,121.523622197,"王貫英紀念圖書館",33
90407782,25.00125158,121.497088002,"客滿炭火燒烤",6
239690527,24.968793297,121.591617518,"貓空∕大茶壺餐廳",21
164060054,25.079248,121.599346,"MOS Burger 摩斯漢堡",1
46179032,25.03922819,121.543732316,"Carnival 嘉裕西服",1
51136053,25.019487,121.530576,"Aura微光咖啡",2
9068054,25.041078067,121.550154528,"Party De Angelos",20
41857773,25.013847,121.534081,"水源市場-清華軒",1
10966357,25.048800012,121.526665989,"基隆海鮮和式料理",7
56789454,25.083067035,121.596091796,"巴西里小酒館",14
358305,25.040957,121.464359,"IKEA 新莊店",14
269566802,24.985941764,121.578313385,"國立政治大學井塘樓",4
266627814,25.005745859,121.477539013,"翠亨村港式飲茶",4
160028,25.00895693,121.510617643,"于記杏仁豆腐（樂華夜市）",16
251802809,25.021947943,121.535880655,"國立台灣大學凝態科學中心",2
14212949,25.037747231,121.544373438,"Taipei City Hospital Renai Branch",4
379620,25.063299702,121.501114715,"Mos Burger (三重重新店)",13
1312322,25.006408931,121.483891444,"國華人壽商業大樓",1
39634159,25.043283697,121.527199907,"Beccafico",328
33909901,24.982671307,121.534704111,"新店區民權路",7
888407,25.133564,121.539416013,"The Top",126
267452861,24.996022566,121.571751764,"台北市立木柵高工",1
13889019,25.038336773,121.52540803,"公車仁愛杭州路口站",9
263097068,25.039903805,121.554801381,"佃權おでん",8
94114917,25.043410778,121.563583143,"T.G.I.FRiDAY'S",2
255212274,25.041927801,121.516950731,"台大醫院骨科部",1
23443374,25.049839094,121.528266239,"楽市楽座",22
251017480,25.125933214,121.516336354,"文化大學大成館",1
65753386,24.980069274,121.554480398,"景美溪",17
97713273,25.061126122,121.50148371,"E7PLAY三重館",69
95639795,25.043527609,121.555567414,"淨慈創意蔬食",10
543525,25.039072,121.548939,"公車仁愛敦化路口站",2
48323863,24.999811974,121.499062336,"小茶哉堂",6
429215,25.030018382,121.528076666,"巴哈咖啡館",18
2458105,24.993759555,121.495526359,"北城烤鴨",2
256694614,25.041696617,121.539988413,"文慶雞新加坡文東記雞飯 台北直營店",4
1525692,25.13182584,121.501963513,"蔡元益紅茶",26
227537816,25.108518997,121.526200058,"Taipei 101",4
87326282,24.982882,121.536028,"TiMotion",3
6798466,25.027634299,121.562836221,"小捲家",26
36968090,25.038190964,121.542348862,"Fritz Hansen",8
96309235,25.02054319,121.544696786,"台大國青宿舍",12
96366570,25.081892067,121.531291042,"Gratin House",1
10581607,25.045137489,121.557629929,"巿民大道光復南路匝道",34
219176927,25.062782113,121.542356538,"Bellini Café",4
2399311,24.98287,121.533928,"雲南傣族小吃店",14
8106216,25.081394179,121.551548189,"永安產後護理中心",2
12573632,25.027414731,121.552657532,"cama現烘咖啡專賣店",2
45536383,25.044262,121.525735,"丹堤咖啡",7
270444295,25.054797777,121.521137487,"SART Tattoo.design",4
100249521,25.047988941,121.555134952,"五味臭臭鍋",2
3548821,25.063241,121.580616,"壹周刊",2
227597752,25.061372613,121.578562744,"大潤發 RT-mart",2
237537261,24.979645354,121.556635647,"台北市立圖書館力行分館",3
5049320,24.989058064,121.569377482,"巧味香豆漿王",15
53462,25.019817648,121.542134285,"台大電機資訊學院博理館",5
835004,25.032770884,121.543228686,"Le Corner",36
256815195,25.049272203,121.578110608,"Citylink 涓豆腐",9
132191429,25.057981304,121.532508269,"荷歡足體養生館",2
181500604,25.058813095,121.48475647,"聯邦排骨羹赤肉羹魯肉飯",1
16695,25.032832,121.567382,"世貿二館",8
4625943,25.019687184,121.548078271,"和平高中",19
191052560,25.0604,121.498284,"Star Hotel",3
658859,25.058969766,121.547199909,"聚園餐廳",20
5050129,24.99640912,121.490144102,"公車大同公司站",15
271930,25.044449404,121.518940969,"台大醫院兒童醫療大樓（台大兒童醫院）",242
42441080,25.059296,121.558037,"周胖子 - 民生店",1
274706359,25.025453831,121.551370409,"Cafe De Riz",5
58001,25.000338181,121.485082034,"國道3號中和交流道",19
10521303,25.037918704,121.53762196,"Flower Market Taipei",59
142187558,25.047241,121.540322,"彰化肉圓",2
264637247,24.998875799,121.511046044,"Bald Fatty Bistro",2
11028494,25.134468255,121.502440899,"麻布廚房",13
259482798,25.045000372,121.522153094,"喜來登蘇可泰",3
266484395,25.077468525,121.572282008,"中租控股內湖總部大樓",2
8145465,24.997065467,121.544652186,"巨林美而美 景興店",7
12926889,25.01490052,121.516471484,"阿里郎",34
46093668,25.051994622,121.546324658,"New Media Publishing",25
269622187,25.002268402,121.495423689,"家樂福中和",2
240582595,25.056085181,121.543728059,"暴走食舖",19
237637045,25.03607076,121.519259926,"中正紀念館自由廣場",6
63701228,25.055779436,121.542210332,"綠逗薏人",1
2802500,25.042650113,121.518435776,"台北車站(青島)",2
17205789,25.037568225,121.557646652,"佳恩牙醫診所",18
215622673,25.052219927,121.523967391,"Smith And Hsu中山店",10
215592461,25.058324603,121.510459372,"大稻程公園",3
63918651,24.996387795,121.520995235,"星巴克-愛買門市",10
116900725,25.06910125,121.58743265,"宇恆動物醫院",2
23835,25.08388,121.556144667,"八海火鍋",5
147221203,24.999282621,121.555472649,"魚舞",9
20669346,25.044802563,121.52295243,"公車捷運善導寺站",3
217044039,25.015409059,121.515978908,"世界豆漿大王",7
271414227,25.000115026,121.565976421,"想想影像俱樂部",1
257590061,25.046242988,121.550826932,"Lily法式薄餅咖啡",2
8438041,24.982895744,121.56887277,"景美溪河堤",6
267395715,25.052157402,121.535928309,"戰略高手",1
14426,25.029279804,121.569989862,"中強公園",189
144012010,25.084519524,121.557535166,"7-11",1
171128841,25.078685,121.585573,"牙醫",1
15263562,24.988844025,121.465839939,"KOHIKAN 珈琲館",5
252666774,25.047010073,121.51713213,"涓豆腐－台北車站",5
100869801,25.04972745,121.48882504,"台北威尼斯大樓",11
259534625,25.100587145,121.549050736,"艾雪的魔幻世界",7
31009459,25.053734812,121.545371352,"Joyce West Café",24
248447170,25.054621194,121.60339837,"宜蘭綠色博覽會",3
225149,25.048783,121.542828,"TIVAC",16
203927900,25.082397461,121.552810669,"巴黎藝術美甲",1
862602,25.040858,121.546062,"Chianti",18
273442968,25.035013724,121.573768306,"信義豪宅",4
97040442,25.10178,121.529072,"The Soup Cafe&more",4
264856999,25.082673248,121.553514005,"九鼎鐵板燒&鍋物",2
251627423,25.033419549,121.543124693,"The Corner",1
275580399,25.017812174,121.533551881,"台大體育館mblaq Tw Concert",1
68350912,25.025348457,121.551642958,"山花割烹壽司",17
46766619,25.084425415,121.565542396,"上林苑",4
235398470,25.065141661,121.587955167,"內湖昇恆昌",1
251928141,25.056126034,121.53762981,"Double Six",1
222803136,25.036958236,121.517604474,"中正紀念堂 自由廣場 City Tours",68
236870367,25.028336603,121.546446239,"Chess Club",3
47499849,25.052143302,121.513991439,"福君海悅大飯店",17
2943444,25.002937252,121.526671565,"華藝數位 Airiti",12
64980221,25.118369741,121.530201007,"四方居麵館",1
11773484,25.049120445,121.513556476,"京站Q小路",2
270641995,25.125068139,121.487031454,"關渡平原",5
149506636,25.04399,121.587024,"MJR Sport",10
29976443,25.035111279,121.521904136,"國家劇院",1
99240508,25.033147,121.496347,"中華民國紅十字總會",7
11837,25.037991838,121.537817095,"建國假日花市",120
265848562,24.997640383,121.572449379,"我在木柵天氣晴",10
58152393,24.996225913,121.515099969,"富壽司",5
43184391,24.993223,121.560028,"Chase's Hometown",3
257502175,25.062917302,121.584224545,"台北內湖區",2
128494553,25.048499378,121.556163875,"1980 Darts Bar",1
107671255,25.00267084,121.469951423,"瑪莉珍 師大店",3
52093045,25.08350716,121.546774907,"庫卡咖啡",40
269714000,25.051551386,121.581111865,"佳遊單車店",1
254627232,25.040907877,121.577725615,"魏姐包心粉圓台北永春店",3
10214364,25.021096843,121.548560158,"柯達大飯店(台北敦南) K Hotel(Taipei Dunnan)",48
3714963,25.037427907,121.560906247,"Faust pizza lounge",114
42417,25.000763743,121.512195609,"四號公園",1296
227705394,25.028647364,121.502044499,"台中麗寶樂園",5
2049679,25.009693173,121.465164905,"花旗銀行 Citibank (板新分行)",1
216402314,25.069922744,121.476667834,"FamilyMart 全家三重金勇店",1
48340690,25.054120682,121.561331537,"Chateau Andy 安迪城堡",18
75844168,25.043124562,121.539951665,"忠孝東路三段217巷",5
8886543,25.047518031,121.566682259,"傳播工作者教育訓練中心",41
177775152,25.020954687,121.468305731,"Puchi Loft",60
51893236,25.05977786,121.500668549,"Home Sweet Home",5
574135,25.118254,121.533804,"麻布茶房天母",3
19331219,25.034963908,121.52192644,"瘋狂達利超現實主義大師特展",60
524055,25.039328269,121.50816679,"國軍歷史文物館",6
140353890,25.025727,121.533627,"Bastille Cafe 和平店",1
251804075,25.039841707,121.553932731,"Tinun",5
11619,25.02550964,121.463287177,"四維公園",101
20115639,25.080173,121.57007284,"Mos Burger 文德店",1
269723792,25.057717525,121.545125382,"Starbucks 西華",2
1610689,25.052036266,121.513935675,"台北福君海悅大飯店 Fortune Haiyatt Hotel Taipei",66
6175612,25.0287024,121.576957232,"時代廣場",6
469335,25.015955401,121.530446113,"三軍總醫院汀州院區急診室",20
1718818,25.054073401,121.548399925,"GORDON BIERSCH 敦北店",12
1055966,25.046187735,121.543274147,"大潤發中崙店",99
477888,24.986953432,121.574280449,"政治大學新聞館",16
15375222,25.042026,121.518058,"Freedom Square",19
161851416,25.04819079,121.549095334,"怡客咖啡",2
236359376,25.042289318,121.51180096,"Jolly卓莉泰食麥酒餐廳-衡陽店",2
272481349,25.048461309,121.531517646,"饗樂牛排",2
257758942,25.029500944,121.506215157,"南機場公寓",1
1059556,25.068433544,121.588370925,"Home sweet home",3
250265472,24.994414115,121.487508822,"烘爐地",1
7463487,25.008306,121.471667,"菜鳥優質義大利麵 PASTA",2
98213294,25.075244904,121.521682739,"Buger King 統一阪急百貨門市",1
19481976,25.018808344,121.541719725,"台灣大學資訊工程學系德田館",16
219848619,25.058235299,121.542105758,"國立台北大學台北校區",2
6056226,25.033133,121.559143,"appWorks Startup Mixer @ Marquee",6
274640612,25.046013911,121.507214059,"全立西服",5
16475,25.066569768,121.50024669,"台北三重-三和夜市",415
262917848,25.042051686,121.514626341,"二二八公園（前 新公園）",1
57888659,25.06992706,121.580209248,"SEVEN-ELEVEN日內瓦門市",10
4845686,24.98556,121.580283,"無敵鐵金剛之阿強一號的木蘭飛彈私藏彈藥庫",3
242704250,25.046154071,121.543164382,"華漾大飯店 中崙店",12
267470416,25.086416603,121.565348536,"德明財經科技大學(第二閱覽室)",2
165011239,25.04384183,121.510004215,"葵明亮珈琲走廊",8
258684960,25.04099895,121.554063227,"麵家三士 SANJI",1
548502,25.048996142,121.524490131,"中山基督長老教會",60
1141689,25.043021952,121.513192412,"天瓏書局",14
7300738,25.064241177,121.526783081,"Caishe Hotel",15
130443210,25.005048953,121.51268363,"越味香",6
66274877,25.080141068,121.591362,"武郎滕居酒處",3
252711545,25.053910504,121.525810866,"Starbucks 星巴克 (林森門市)",5
214120073,24.99529665,121.585281823,"木柵動物園",8
249695658,25.062888958,121.563772431,"新浪潮水族",1
17080258,25.050545206,121.510489381,"復興航空",2
201412,25.043949314,121.549129486,"The SOHO",53
17581505,25.025861159,121.535442,"台灣中油股份有限公司-龍安站",8
1185252,25.039136,121.557816,"邁格數位",1
255433798,25.073185561,121.606408281,"大湖公園親水步道",1
49316058,25.012043,121.465563,"寬心圓",6
186112160,25.057512772,121.519149531,"英國藍",9
7173377,25.043468893,121.574117662,"7-11信吉門市",3
214349672,25.114508881,121.53657648,"天母台北體育學院",29
717975,25.001378,121.552998,"興隆國小 公車站",3
244442010,25.082474558,121.463620511,"Mos Burger",1
230085856,24.994196737,121.579331549,"貓空覽車空中移動中",23
264537215,24.986264266,121.56615236,"戲曲學院   黑箱劇場",5
244932705,25.078995917,121.483756967,"幸福戲院",2
7358,24.997987118,121.48546144,"Gamania",40
44766320,25.037473,121.546186,"品悅糖",3
131360746,24.982940218,121.56377266,"雅風音樂貓咪中途咖啡廳",14
221075641,24.993021288,121.541879226,"Bravo Burger發福景美店",70
83433043,25.0046294,121.5031108,"臺北美術館",18
267973891,25.040849229,121.574846714,"Pop Radio Fm91.7",2
215635473,24.978889407,121.589713145,"貓空-指南宮",6
230556790,25.051088,121.529931,"天元金玄殿",2
94434230,25.119336427,121.518736892,"鍋比盆大",4
41484861,25.054806,121.542108,"MRT Inn",5
79166,25.081112,121.563354,"戲谷",2
635295,25.062214666,121.544156014,"民權復興安全島上的椅子",129
236896763,25.058321485,121.553033849,"Foodie Amber Grocery Wine Bar",5
892790,25.040130226,121.534271644,"四知堂",232
706363,25.05995461,121.530340398,"鑫鱻生猛活海產 (吉林店)",30
250352243,25.042057003,121.543819188,"忠孝復興捷運",4
2009045,25.055532625,121.533016677,"泰國辦事處",21
164772,25.042843,121.508855,"晶華酒店",5
236201196,25.064918649,121.581522719,"蘋果日報",11
246244887,25.044088445,121.547796616,"Hs Cafe高跟鞋公主",13
268066978,25.132089589,121.469730677,"國立臺北藝術大學展演中心戲劇廳",4
251876708,25.06238629,121.53711913,"基隆內木山靶場",2
237103812,25.034280088,121.543927843,"Taipei 101 Tower",1
32992509,25.041093857,121.544300964,"Cash Box Party World",10
82028014,25.064860558,121.524261804,"三媽臭臭鍋 晴光店",2
131374932,25.031355,121.495406,"大頭炸雞",1
10957400,24.980045752,121.567726756,"政大環山道",55
248059835,25.045617907,121.580680353,"五分舖",5
15117798,25.029040723,121.56139253,"江浙知味村",1
111419455,25.005117016,121.463931799,"二哲家",3
241905921,25.012292652,121.462771972,"Taipei",1
45507285,25.07382,121.576507,"Golden 300 sec",2
237034307,25.045641585,121.568674211,"市政府站附近",1
23185718,24.978589201,121.539773941,"Noble Family Steak House",2
9040171,25.136485573,121.473716901,"國立臺北藝術大學游泳館",20
243543335,25.095909921,121.528113473,"中山北路五段麥當勞",5
10914369,25.042780549,121.50784046,"原住民不滿族 山豬肉香腸",5
74657391,24.99549,121.497634,"第一家盬酥雞",1
383260,25.132867,121.4662927,"國立台北藝術大學司令台",6
24994341,25.041924051,121.557774861,"Chun Shui Tang 春水堂",9
108578443,25.018375397,121.531715393,"公館現做早餐",4
246173626,25.11750253,121.464539502,"關渡腳踏車道",5
124932122,24.987212321,121.576965592,"政大企管715",1
214976086,25.045241938,121.528311667,"Offline Cafe 離線咖啡 - 華山1914文化創意產業園區",16
977239,25.047972,121.517793,"台北駅公衆トイレ Public Toilet",30
160859221,25.047324,121.53291,"無限制娛樂",3
107942415,25.138150164,121.502899362,"宜家居酒店式公寓",6
46363657,25.055824304,121.492888248,"亂掰",1
245621854,25.035070132,121.565787955,"Vapinao",3
258299,25.065231214,121.511081028,"鮮肉湯圓",21
27832539,25.044754239,121.525444877,"吉野家",1
51424509,24.958301614,121.537794075,"新店捷運站",82
2224724,24.92945688,121.544822728,"甕仔壯壯雞",41
835094,25.0557121,121.61101,"念戀小館",1
246154252,25.130065225,121.47174618,"淡水捷運上",1
242703723,25.073534749,121.578614026,"魚霸現撈海鮮 -  內湖店",4
31979394,25.114685059,121.532844543,"新光三越天母店 兒童樓層6F",2
92357368,25.085756,121.564791,"C25 咖啡",3
157622445,24.994941745,121.469025376,"雲林薑母鴨",4
7914309,25.030192724,121.533294842,"新生國小",37
597443,25.055487,121.613013,"恩花園 Ann 韓國料理",8
264685860,25.057740501,121.488445178,"朵朵藝術指甲",3
13489180,25.038271104,121.568198342,"台灣微軟Microsoft",9
72010,25.061227511,121.578531699,"大潤發 內湖一店",100
44347702,25.060736946,121.579178199,"McDonald's",41
241308978,25.034893281,121.566994673,"信義威秀La Cafe",1
75561398,24.982999,121.508695,"口碑鹽酥雞",2
202544101,25.062171,121.528564,"飄花雜舖",1
123779,25.127018583,121.519871645,"Home",40
144528993,25.040979385,121.573173523,"王俐人髮型美容造型-信義永春店",1
239594680,25.0442276,121.5014647,"台湾台北市",2
197519,25.062023567,121.544108391,"Starbucks 星巴克",84
1131514,25.006098,121.515413,"全家便利店",3
215764389,25.062180096,121.490292229,"新北市三重區綜合運動場",97
2531801,25.046463045,121.526100282,"民進黨中央黨部",12
783561,25.016676911,121.544777708,"台大男三舍",4
97673304,25.046797,121.587723,"恩慈美國學校",4
621082,25.008016933,121.4794752,"7-ELEVEn員新門市",3
726914,25.035918,121.545258,"當代",4
262138689,25.00824922,121.47169145,"山東牛肉麵館",1
4144337,25.070789533,121.53157711,"Pavilion of Dreams",29
158013432,25.078491776,121.584322469,"富士印日式炸豬排文德店",12
239301584,24.982916664,121.542285793,"Number Nine咖啡&廚房",7
247892478,25.051332447,121.56387417,"蓮香齋素菜國際會館",1
258297136,25.037061492,121.587435655,"松山慈惠堂（母娘文化季）",1
26824757,25.058123178,121.497029441,"我家",4
16204230,25.0479842,121.56433006,"SALMOS",4
70039320,25.053035,121.520927,"花.靈性.食堂",1
272696259,25.001472495,121.514291048,"永和四號公園-兒童遊戲區",1
216487564,24.990167908,121.575429055,"ihouse NCCU",3
57670536,25.039159775,121.564796448,"麥當勞 0430門市中心",2
265005135,24.982715067,121.489388882,"Zhonghe",2
219621732,25.060747579,121.561200868,"日光大道富錦廚坊",122
24724033,25.023233414,121.526847839,"瑪莉珍",4
14789046,24.978241577,121.533142247,"酒窪碳烤",14
2065711,24.96006163,121.51046281,"幾分甜 安康",1
95428564,25.060972227,121.544189464,"三民書局 復北店",9
91957409,25.092281008,121.525595426,"尚品迷你麻辣鍋",9
3577354,25.091215695,121.595560012,"新福本坑",13
148141826,25.026318192,121.554653206,"Hot 7  新鉄板料理 台北基隆路店",151
93013220,25.049846,121.515044,"袋袋相傳",2
138576,25.025858639,121.543732316,"Anzu 杏子日式豬排",325
108323838,25.042290366,121.511710652,"二二八和平公園公車站",3
23738250,25.024836764,121.528935327,"好好味港式小吃 Ho Ho Mei Hong Kong Snacks",3
250416442,25.02175694,121.535359361,"台大體育館小巨蛋",2
198167018,25.058069595,121.53316164,"Youbike 捷運行天宮站（1號出口）",2
100835274,25.034118,121.551666,"小耳朵藍山咖啡",2
1375969,25.0521792,121.5386817,"海寿司",12
107627313,25.111855894,121.558857078,"中社橋",9
102551946,25.060428,121.563414,"85度C",1
69258585,25.122787591,121.528310845,"Tienmu Gym",2
174357833,25.028721,121.506415,"碳烤三明治",1
108695197,25.069087416,121.522233123,"Butcher's Kitchen",11
356942,25.043268096,121.577432273,"永春圖書館",24
77768036,25.008485,121.514621,"鼎之味",1
237158222,25.021460457,121.479706695,"高手保齡球館",15
2757289,25.014538,121.470967,"魚中魚-板橋中山店",4
251079050,25.024313582,121.527241934,"White Wabbit Records 小白兔唱片",18
10968142,25.055611,121.573608,"有彩虹的牆壁",13
182530018,25.05989637,121.573270387,"美福食集",1
111857506,24.991163,121.573574,"漢堡寶",1
861270,25.065949864,121.5256387,"台北華國大飯店 Imperial Hotel Taipei",204
87434,25.037879904,121.537842751,"台北市建國假日觀光玉市| Jianguo Jade Market",59
244941619,25.046930151,121.515996594,"Dazzling cafe 蜜糖吐司",4
168696,25.061105,121.521118,"下港吔羊肉爐",105
20139224,25.074483349,121.520482233,"Treelleage live house",1
128980301,25.062414,121.576305,"悅家居Protrend Living",1
143632334,24.958171,121.5382,"全家 (Family Mart)",3
229613109,25.079144557,121.569248184,"八大電視GTV娛樂百分百",4
275970315,25.002151159,121.59736461,"移動的高速公路上",5
244243583,25.05882029,121.524499954,"MOT/KITCHEN Light",31
37894471,25.061737012,121.494617249,"中華電信 三重服務中心",7
1900586,25.02443619,121.55142348,"林正宗婦產科",6
6797759,25.028656728,121.473279545,"雙十廣場",17
39535,25.13197118,121.49859943,"捷運北投站 MRT Beitou Station",475
5666381,25.111954001,121.531210196,"紀伊國屋書店台北天母店 Books Kinokuniya",31
60773606,24.970038882,121.536975224,"狗皮窩",11
252014323,25.025106396,121.545154641,"施崇仁耳鼻喉科",2
66890406,25.050274597,121.536350786,"袖珍博物館",76
215050710,25.049848758,121.517145194,"Q Square Alleycat's 京站店",14
499560,25.037303783,121.528090366,"Royal Biz Taipei Hotel",39
1509868,25.06129328,121.48776802,"三重郵局",8
258679324,25.086318205,121.473773276,"三民高中游泳池",2
101667748,25.024364253,121.478481137,"沐夏會館",3
310808,25.028246,121.52385605,"林記燈籠牛肉麵",3
9196442,25.039299506,121.547930209,"Bom Bom 蔬食",30
356522,25.081925059,121.54644173,"東方饌黔天下",1
626931,25.038024315,121.546910018,"沾美西餐廳",12
2010976,25.109445816,121.533284301,"McDonald 德行店",8
245527485,25.006423239,121.472876839,"全家FamilyMart",4
256175179,25.062212158,121.604211781,"內湖焚化爐健身房",2
16276091,25.028186504,121.534191066,"清真寺",6
265107512,24.986424386,121.564030065,"Club Myst",2
17313969,25.074933172,121.57721082,"Ikari Coffee 晨星店",14
124604180,25.040363312,121.503974915,"Taipei Homestay",3
72474824,25.081192,121.522824,"劍潭國小巴士站",1
65536513,25.04942936,121.579317386,"CoCo壱番屋",21
240620045,25.038323322,121.554756452,"1樂 涮涮屋",2
50849475,25.078924,121.569441,"TASTY 西堤牛排 - 洲子美食街",3
79249141,25.089685402,121.522539804,"南港老張燒餅店 (士林店)",1
1330519,24.968182667,121.541393995,"接狗接貓",7
65007908,25.028798,121.553805,"廖家涼麵",1
1185630,25.000564745,121.555896304,"Mos Burger",23
267544,25.026471556,121.547439626,"天使野餐（de Angelos)",37
1054633,25.036563589,121.552066627,"Stream",32
276369479,25.061177178,121.533181147,"台北松江路",2
19040071,25.081284934,121.551651491,"頂廚國宴",13
258622706,25.068193333,121.49905845,"鮨 壽司大眾食堂",2
158358,25.036248815,121.512498668,"法務部",4
299121,25.04573392,121.580686479,"Sparta Cafe'",134
8725917,24.994826939,121.587420757,"木柵動物園非洲動物區",179
240766926,25.131374199,121.500603504,"台中 新社薰衣草森林",3
242009480,25.008237739,121.474880954,"環球購物中心中和店-玩具反斗城",1
234388224,25.037884868,121.529287654,"邊邊 Café",13
269019715,25.023313168,121.520104993,"小巴黎人麵包製作所",4
79636919,24.993193993,121.517248034,"永芳陳家祖傳美食",4
235449984,25.043176129,121.56331621,"XIE XIE Taipei",14
74352867,25.020092,121.533622,"霞飛驛 Post Cafe",27
1289071,25.031203791,121.528271815,"淡大金華街分部",2
245645817,25.003126136,121.55720911,"新竹小叮噹科學園區",1
3554125,25.017733989,121.536427593,"台大文學院",89
240593052,25.054952303,121.537701316,"首都唯客樂",1
14371800,25.01777051,121.540136389,"活大",15
30493207,25.035878667,121.512368683,"法務部",3
26557132,25.005041122,121.485168457,"GOOD TV",5
11066472,25.05715,121.563596,"丹提咖啡",8
40278374,24.988568334,121.549234702,"Examination Yuan考試院",30
252177128,25.056774494,121.522671836,"Allen Dickson",24
262930143,25.084661451,121.544950654,"實踐大學健身房",7
104010072,25.045881509,121.537042395,"Mihan",3
116195434,25.033228496,121.557355821,"寅樂屋 Torarakuya",483
2250692,25.037589316,121.505899738,"古拉爵家樂福桂林",41
108974,25.108641997,121.525150052,"吳家豆漿",27
227570634,25.039301523,121.517677339,"凱達格蘭大道。反核遊行",58
37199180,25.11129564,121.549948264,"福音園",57
273183170,24.980914083,121.508205396,"日本富士山",1
27319128,25.031156,121.511397,"立體書的異想世界",1
2158191,25.051801144,121.563817252,"7-ELEVEN 東光門市",11
11823188,25.065156478,121.518335404,"7-11 三德門巿",3
133606438,25.111961,121.528726,"Agnis B",1
110484340,25.014253043,121.54096151,"National Chiao Tung University (NCTU)",2
3724232,25.037601,121.549893,"Chung Shan Hospital｜中山醫療社團法人 中山醫院",4
624611,25.060749391,121.522896669,"法國巴黎 婚紗攝影 台北店",8
31001376,25.0837805,121.481364626,"小歇 Tea Shop 集賢店",20
108357043,25.017026,121.469644,"鮨彩壽司",20
371355,25.020973174,121.539952272,"台大計中",16
268662309,25.06458751,121.57200771,"內湖民權大橋上",1
258046,25.047975089,121.561263723,"傳奇星 a Corner Caf'e",93
202725719,25.014132389,121.472818776,"好客雞肉飯",2
239440133,24.973959917,121.548228884,"新北巿新店區",8
258426272,25.089311147,121.521680649,"士林運動中心-怡客咖啡",3
44042534,25.050494414,121.532228844,"京東洋食燒烤",11
223291947,25.035856229,121.569194558,"Brown Sugar Live & Restaurant 黑糖餐廳",79
3326553,25.020003871,121.495989277,"河濱足球埸",13
95458458,25.056769,121.542177,"古月炎",8
139904923,25.084719309,121.474182696,"中山一路",1
15448917,24.982151,121.542085,"Mita Fancy",1
89283291,25.083392892,121.547595721,"Meladle",3
64964365,25.007327787,121.511989479,"陳記燒臘快餐",3
65390097,24.989915,121.510896,"義美食品",1
12076303,25.036347021,121.575750591,"泰鄉",2
114068586,25.060651,121.49258,"三重交流道",1
70329883,25.064835,121.529318,"丸林魯肉飯 農安街店",3
3350051,25.004413,121.51817,"源創意壽司屋",4
21261026,25.04279958,121.508905612,"Hung Kan Restaurant",4
8323038,25.115763,121.532528,"Caffe Reunion",4
44334813,25.023702404,121.525188386,"魚舞",7
1147379,25.045101,121.533627,"阿華海鮮",4
9470168,25.028244,121.543488,"全家興和店",1
2732429,24.999695838,121.519871645,"My Sweet Home",4
76329467,25.05289339,121.536713184,"Via24",17
242826124,25.118250089,121.518307018,"台北護理健康大學明倫館",6
223856378,25.049822912,121.572756503,"九份老街",4
249586683,25.024896707,121.544312503,"Cafe Mussion",6
256681436,25.026579668,121.550591812,"珠寶盒法式點心坊",41
220951923,25.023206983,121.529983556,"the 5th floor",3
96548182,25.041847256,121.553817034,"阿水獅豬腳麵線",1
260744105,25.033817941,121.55245489,"鳥窩窩安和店",3
87024228,25.089829,121.519512,"佳聲錄音室",3
2106686,24.909529669,121.497029441,"Far Far Away Kingdom 遠的要命王國",2
62421714,25.047058452,121.560963321,"Trueyoga",6
270026430,25.136980168,121.504422592,"北投水紗蓮溫泉會館",2
30516,25.042068,121.532184,"Starbucks",11
242907407,25.058171856,121.563390734,"All Pasta美式餐廳 Brunch Burger Pasta Steak",2
240124166,25.044048273,121.519186162,"立法院嗆馬專區",1
29281445,25.046938368,121.54926815,"凡間食譜",1
97222,25.117425503,121.513190694,"7-11安遠門市",7
247031,25.05520084,121.566832066,"臺北市立西松高級中學（附設國中部） Taipei Municipal  XiSong High School",3
33694458,25.031034,121.560396,"辣滷哇",1
238363824,24.968887011,121.585069999,"貓空 談天園茶坊",15
118665939,25.05343,121.516178,"Coco Curry",2
166475364,25.128664853,121.468523299,"日本料理",2
1237932,24.982718,121.535978,"新店慈濟醫院",13
245703989,25.061283561,121.542108541,"東區",1
111998397,25.014389,121.531787,"阿Ben工作室",1
254477576,25.011432384,121.464317069,"新北市政府稅捐稽徵處",1
158360111,25.034718,121.529005,"MRT dongmen",6
242036286,25.036783247,121.534935371,"臺北市立幸安國民小學",2
256241632,25.002878621,121.474012212,"中和民享街",2
69215651,25.085677,121.546075,"實踐大學女二舍413-6",7
75956502,25.02646944,121.534064869,"摩斯漢堡和平東路店",2
250591816,25.044919235,121.522072702,"Hong Kong",3
2694011,25.058834721,121.548203373,"Rich Cake",44
252699426,25.044910467,121.559965544,"韓國濟州泰迪熊特展 JEJU TEDDY BEAR MUSEUM",5
19182702,24.985150817,121.542411035,"香祥海鮮店",3
97372580,25.125613492,121.46734062,"米塔手感烘焙關渡捷運店",8
98264928,25.123371217,121.502849169,"台灣大學博雅教學大樓",3
75154958,25.001323,121.502191,"有一家水煎包",1
16996658,25.058925729,121.48427074,"全家便利商店",1
249283654,25.095916901,121.528677854,"和民士林店",4
7220825,24.999695838,121.519871645,"Clementtang的房間",35
3203155,25.003016795,121.467547031,"行旅者驛站",3
240451223,25.132639876,121.49834361,"O'live Hair Salon 奧莉時尚美型沙龍",4
171196137,24.988969489,121.501164908,"亞文化 ya.culture",5
93536044,25.033165,121.520364,"寧波東街愛國東路口",2
274481105,25.024848,121.5662377,"Minquan East Road",2
262219547,25.115076811,121.515379958,"茶湯會石牌東華店",1
4172943,25.052048,121.519977,"正原担魷魚羹",4
56557556,25.033227062,121.552284036,"安和消防分隊",5
3897797,25.032941726,121.554788947,"黑松大樓",11
216170668,25.050379065,121.593422644,"捷運昆陽站",20
2372751,25.10441371,121.52515493,"BMW 汎德展示中心",20
262519996,25.044727668,121.570155094,"信義Tempo",1
906796,25.027315671,121.550975,"方米廣告",1
13108287,25.013609071,121.513891063,"大永和福州乾麵",1
166975487,25.023920289,121.519153118,"廈門街浸信會 Amoy Street Baptist Church",3
78436922,25.017022,121.5600593,"Linguang Station",1
35337751,25.077076841,121.573838888,"Starbucks coffee",1
252786053,25.075769409,121.499117791,"三重區的某一個角落",1
109594555,25.030337371,121.55560086,"大傻小傻",1
130113,25.025206214,121.495370193,"東園街",6
15111280,25.028452094,121.545463124,"Mos Buger",2
147243591,25.064232,121.54784,"民生西路",7
1514544,25.057177,121.525825,"Amigo Cafe & Bar",1
269439251,25.050685166,121.570584132,"八德路四段",3
2459274,25.049038,121.555495,"K.S 越南美食餐廳",1
263760567,25.035808083,121.564979387,"台北婚紗時尚饗宴 世貿三館",1
48516616,24.982837081,121.533641133,"百八魚場 大坪林店",3
267898712,25.004997348,121.512289003,"艋舺剝皮寮",5
50725691,25.041551,121.504175,"都来也豆浆店",2
92228150,25.007683522,121.513009981,"CoCo都可",2
52480633,25.082845063,121.558354588,"大時代美食廣場",5
1597118,24.984083471,121.508036538,"祥鈺茶樓",62
97067294,25.054181,121.540274,"龍江停車場 中山大同保管場",1
68765768,25.018907,121.532932,"Moonlight Teahouse",6
5386479,25.10320377,121.522326853,"阿里郎村落",77
9880920,24.976330458,121.554764695,"景美溪河堤",5
234645307,25.025996879,121.542101369,"立法院",3
2678605,25.024178972,121.524584774,"聚北海道昆布鍋-南昌店",111
760739,25.078649925,121.597986408,"小百合",3
66680252,25.039890659,121.511515473,"smith&hsu | 衡陽店",10
3621767,25.055295836,121.554126418,"小閣樓",4
9378570,24.973063166,121.579277638,"樟山寺",36
76281597,25.03827971,121.50809699,"國家圖書館藝術暨視聽資料中心",4
206229735,25.05141,121.569463,"399 Section 5",1
231416574,25.000326,121.518173,"串処 隠れ家",11
15151136,25.02980909,121.529561769,"東海萊姆園",221
149539037,25.014307,121.467499,"樂芙達",5
116552693,25.0842397,121.5476632,"彩虹橋",33
26543260,25.132714387,121.499777407,"漢奇肉羹",21
3695481,25.02473412,121.547344854,"敦化南路欒樹大道 Dunhua South Road Avenue",127
938800,25.082981786,121.548225672,"龍涎居 大直店",5
591553,25.048238471,121.550664251,"臺北市立田徑場",24
158861430,25.035053,121.506176,"伯朗咖啡家福桂林店",2
264641692,25.044526238,121.537159713,"西門河岸留言",2
127756871,25.072892,121.513411,"黑黑的",1
13227117,25.061622066,121.577327861,"元定食",1
260648406,25.055693146,121.521736371,"中山區",3
274277236,25.040850306,121.506900753,"金麗麗旅社",1
275518050,25.038849147,121.557130512,"Angie Fitness",1
7720937,25.123648933,121.52568665,"Steven CF Chang Architects AIA",4
1512007,25.079145,121.568027,"compal Inc.",5
253031793,25.035484818,121.57464833,"Space",8
280454381,25.058574603,121.50958109,"簡單喜悅",2
11328724,25.029443846,121.470001679,"板橋石雕公園",15
12463488,25.111934146,121.531221347,"加哩家 Curry House",5
91113924,25.034982739,121.495704833,"台北市私立愛愛院",2
33003517,25.027234385,121.549909242,"Yiamas Greeka Taverna",72
4402565,25.005998,121.461966,"冠君饭店",13
160044849,24.988768,121.578056,"政大光舍 Light House Cafe",2
223054970,25.070834,121.520755,"臺北花博農民市集",1
127404007,25.060045481,121.547205484,"甩三小 專業羊肉",11
238740743,25.066270404,121.523716799,"88 Sports Bar",1
102859774,25.023471524,121.554126418,"WA Sweet 手弄甜點1號店",13
283329515,25.076862299,121.481229281,"永福公園",1
144910620,25.043130705,121.506942601,"Good 9 Stay Inn",6
49020372,25.053091947,121.560171789,"台灣小吃",5
281936475,25.05527128,121.54840334,"M.O. Bar at Mandarin Oriental",6
10242058,25.043257,121.56744,"Mydori (阪急店)",1
1372157,25.050194,121.578635,"台北市松山派出所",1
62502,25.079860204,121.577228746,"東東台記傳統麵食",29
247085942,25.0631,121.464,"小連水族館",1
246747583,25.026756212,121.529104343,"國立臺灣師範大學 綜合大樓",18
236191085,25.074520427,121.572409359,"內湖堤頂大道",7
1340935,25.037646609,121.559751034,"DanceSoul舞魂舞蹈學校 (台北2館)",64
265612894,25.03282965,121.563177846,"Marquee the Hottest Lounge of Taipei",1
7915315,25.010700963,121.463939452,"Merci cafe",640
236130172,24.999613361,121.539592451,"偵軒日式小火鍋",5
149109123,25.008085323,121.509909412,"好吃當歸鴨",1
269571683,25.072453635,121.524417796,"北美館兒童藝術教育中心",10
51149372,24.911446728,121.496536732,"新北市私立康橋雙語實驗高級中學（附設國中部） KangChiao Bilingual School",40
254546617,25.041972202,121.568827094,"印度風",2
2321078,25.033630771,121.558850698,"Ellen's Cafe",8
19469830,25.025210741,121.548816597,"Volks",4
21594850,24.985715809,121.533406962,"VIA technologies Inc",9
104428122,25.036843531,121.547309588,"EIEIO Gastropub 咿呀咿呀呦新美式酒館",237
132185196,25.117925907,121.516837518,"雲門舞蹈教室(石牌二館)",9
8715656,25.028973336,121.528368352,"FT cafe x shop",81
12190261,24.971956828,121.543676566,"七張 16/19",1
9113546,25.03224,121.553161,"燒鳥繁盛",4
49106980,25.071244183,121.513773958,"義美食品",5
373064,25.013935818,121.53483428,"雲泰小鎮餐坊",8
251116595,25.026080072,121.546900875,"Macau",4
257561925,25.073239886,121.574819645,"林炳存工作室",3
39238618,25.031800591,121.519232141,"虎記商行",595
8960228,25.037040242,121.565784862,"信義新天地A9",70
63265,25.036041385,121.547023145,"Kiki餐廳東豐店",72
1729520,24.99727448,121.507459019,"保健路菜市場",83
2190432,25.039956,121.554884,"Mondovino",15
72515,24.974787819,121.550259927,"統帥工業區",12
221060278,25.009735542,121.490237053,"新北市政府-遠雄左岸橋",6
148063722,25.060320771,121.51199767,"原汁排骨湯",6
300883,25.055078711,121.510135617,"正宗古早味杏仁露",159
34675697,24.988849332,121.551531465,"喬丹歡樂窩",11
1062787,25.002178209,121.512866324,"Mr. Burger 漢堡先生美食吧",21
1240461,24.990875,121.541617,"阿昌麵線臭豆腐",5
252660832,25.017646879,121.544413194,"台灣大學明達館",2
274980468,25.0043647,121.5363788,"Wanlong Taipei",4
105320832,25.042721506,121.568003259,"阪急 北海道新鮮生拉麵",1
237742325,25.064958447,121.527160547,"Mr. Paco",4
14273626,25.00481575,121.48804388,"板橋監理所",11
14763496,25.072825134,121.573666109,"NU SKIN Taiwan",30
1813900,25.01822,121.533679,"台大捐血車 Blood Donating Bus",54
2349457,25.02411908,121.508264291,"青年公園高爾夫球練習場",22
126455197,25.079470549,121.572529102,"麋鹿ELK",1
269042085,25.126336937,121.533332532,"石牌好樂迪",2
247182630,25.044755082,121.503222485,"西門電影公園",16
2858677,25.052975,121.53311,"怡客咖啡",5
93020458,25.05111864,121.578386793,"Neverland Lite",3
103185124,25.00198,121.499587,"金石堂中和店",3
13014005,25.012791642,121.534070444,"好酒不見庭園餐廳",13
621806,24.989718,121.53674,"景美河濱公園一號水門",11
235412353,25.043866717,121.521028692,"中華民國立法院",124
250395231,25.119214799,121.501816158,"承德路七段",3
149237733,25.024094633,121.548551833,"Whinos",187
246354787,25.031687993,121.545434923,"陽明山-大屯山國家公園",1
236119203,25.061108274,121.533115717,"不老麻糬",12
91409238,24.997322083,121.578125,"IDEA",11
105057460,25.053046,121.551071,"大塊文化出版",1
265472272,25.03403288,121.498552224,"中國時報大樓",2
19985876,25.037358904,121.54996207,"漁藏 - 海鮮料理",22
16752999,25.042202095,121.509045029,"Toast Bar",1
259414214,24.99561392,121.517722198,"光光會議中心",3
63040353,25.084567395,121.474531344,"黑三代目燒烤",43
257615157,24.997627998,121.513873878,"松山菸廠誠品",5
230071503,24.982900723,121.573750161,"政治大學道藩樓",9
145668445,25.060808048,121.485606636,"書桌前",2
92246668,25.060869207,121.525299904,"長安胡椒蝦",4
149139356,25.060429894,121.498295148,"賴建宏骨科診所",1
249766834,24.994864323,121.541577033,"楓居酒燒",6
271739796,25.078621183,121.48089759,"華山1914創意文化園區",1
14280178,25.094908685,121.523838381,"凱樂義式廚房",5
31162950,25.057867,121.550823,"Dante Coffee",6
109989887,25.037071816,121.545454976,"仁愛醫院產後護理之家",1
32572744,25.04307,121.550808,"Vanilla F",7
15278938,25.041467208,121.502324932,"貴族世家牛排 | Noble Family Steak House",7
11810298,24.960037,121.537208,"長堤餐廳",1
118698,25.004211836,121.524312967,"亞美豆漿大王",31
533784,25.053083555,121.587621379,"Lexus南港旗艦廠",20
743394,25.115839619,121.511809316,"石牌國小",31
589065,25.022561149,121.549783,"樂業滷味",4
8161012,25.00043156,121.484583101,"凱悅廣場",8
297636,25.022512004,121.525932669,"TABF",17
54661417,25.082959,121.548218,"玫瑰緣別館",2
256655038,25.086320862,121.528913377,"銘傳大學室內運動場",3
33153079,25.064245175,121.551821345,"登機門8",12
216277357,25.033971327,121.52911375,"齊民東門市集",95
3245597,25.038990027,121.554056737,"朝鮮味（韓國料理）",38
282288001,25.010974256,121.480128587,"瑞芳九份",2
229530262,25.01921892,121.536474069,"臺大博雅大樓",10
3478174,25.085851535,121.574245691,"淫窟",1
267307666,25.120552051,121.467407611,"全家FamilyMart",1
97689118,25.082064,121.487045,"宜昌布行",3
150829667,25.054753229,121.544808284,"大來飯店",2
120914048,25.031745969,121.548064004,"Le Petit Chambre",18
66713975,25.03519286,121.544865502,"暖暖食飲 Re-Delicious",51
244200964,25.082762672,121.57318701,"美術館徐冰展",8
8321477,25.133063279,121.470486965,"北藝大咖啡(TNUA Coffee)",40
20828922,24.987646456,121.550834637,"咖啡88",66
6538901,25.07178688,121.577468872,"PXFLY",21
39429623,25.028775346,121.533864152,"Hsinchuang Baseball Stadium",10
43784969,25.028948227,121.545979016,"拉亞漢堡",1
461319,25.074288484,121.609019309,"公共電視",120
57040316,24.998127598,121.481225176,"越南河粉",2
174674858,25.023934705,121.549803322,"她他小曼谷 Thai Cafe Together",159
243482897,25.030744351,121.472042704,"笑咪咪三文治",1
26375052,25.025746266,121.544044515,"台北成功郵局",8
234687005,25.032425323,121.521971554,"中正國中",2
11554,25.041757275,121.536501321,"建國南路",25
8228291,25.025824881,121.508100658,"7-11掬華門市",8
4303245,25.02097131,121.521524963,"Greenpeace 綠色和平",1
5385677,25.048207708,121.551677751,"上島珈琲店 八德店",255
61963,25.062180239,121.53776639,"Adidas",64
57174796,24.996228267,121.503975714,"景安國晏",3
21225375,25.006717789,121.479746988,"McDonald's 麥當勞",3
244301743,25.028320636,121.551526328,"Mod Sequel 僖閣",12
4082364,24.98123446,121.560255289,"木新路蚵仔麵線",4
32201585,25.003997,121.598687,"Gym",5
55668,25.07597,121.560191,"中和",11
2935910,25.068407276,121.582421792,"堤頂交流道北上出口",15
42467597,25.086343527,121.488827781,"福記永和豆漿",5
8359805,25.057073823,121.584996537,"麥味登 精緻早午餐",2
52777279,25.08199477,121.557150537,"京桃山美麗華店",1
181985062,25.059114352,121.522221971,"馬偕醫院福音樓",7
213544762,25.028846523,121.542180995,"開平餐飲學校",51
234714237,25.042991121,121.514247523,"麥食達 韓式料理 Msd Or Mista Mizta Real Korean Food",1
215739084,25.095849688,121.528211496,"洋蔥牛排餐廳-士林店",8
252651389,25.068564356,121.516402217,"Aki 也趣畫廊",1
703327,25.024576398,121.563471646,"Daily日式咖哩蛋包飯專門店",21
94792760,25.041394,121.576433,"Yogurt ArtArt",3
991393,24.993461,121.544455,"味自慢日本料理",66
254681793,25.081232629,121.488175991,"溪尾知高飯40年老店",2
10846135,25.040736377,121.572713031,"British Trade & Cultural Office",1
9988227,25.039484861,121.501432607,"海鱻味",26
9197709,25.029029063,121.556225193,"Tajin Moroccan Restaurant",10
265738494,25.075269058,121.53873925,"大江河濱公園",1
3022576,25.027044287,121.525964142,"蘇明圳矯正牙科",33
13327860,25.053070273,121.547863311,"敦化香榭",1
1199603,24.996888589,121.492430894,"台貿一村",10
85565798,25.05283143,121.535145423,"百鄉餐廳",1
74073027,24.999512,121.463765,"板橋福德祠",1
255150727,25.046536004,121.548361666,"Übike",1
6056624,25.060576427,121.561186287,"Sonnentor Cafe 富錦店",20
64333240,25.02487615,121.469817537,"蘇力士運動會館 文化店",12
71778434,25.001233037,121.515073264,"饗讚健康珍鍋",4
4079525,25.07158731,121.518591911,"與孔子學習中",13
97273691,25.023475696,121.522428284,"拉亞漢堡",5
251337132,24.991499587,121.502132515,"我的自由年代",5
235331453,25.056099661,121.510772374,"WasangShow 花生騷",1
250249850,25.014750804,121.542715085,"台灣科技大學研揚大樓",13
9887881,25.023605775,121.497065693,"雷獸家",53
250314878,25.042804,121.523712,"Cheng Kung Senior High School",6
137018788,25.033881857,121.529959303,"雄獅欣講堂 永康人文空間",4
173015460,25.05024147,121.578979492,"上海交通大學",1
99331402,25.03826,121.525233,"交通部國際會議中心",5
1664560,25.009641,121.513808,"永豐銀行",1
191316789,25.032552718,121.569792438,"公車捷運象山站",38
212957076,25.035634668,121.506598419,"臺北市立聯合醫院和平婦幼院區",1
93875,25.114615637,121.513746075,"摩斯漢堡 MOS Burger",35
251764206,24.995790287,121.513974357,"竹林中學",1
78980,25.041902487,121.544908633,"太平洋SOGO百貨(台北忠孝館)",1793
271624707,25.07880639,121.462480703,"蘆洲永安圖書館",2
242625929,25.050391323,121.566128859,"Sam咖啡小館",9
236036549,25.039502691,121.57779356,"金仙滷肉飯",1
281934666,25.006022836,121.524634003,"新北市永和區",4
57150107,25.135935447,121.506647032,"頂呱呱 北投店",1
960407,25.017365771,121.529487321,"佰大尼美國學校 (Morrison Academy - Bethany Campus)",7
42451,25.028957675,121.506105268,"南機場",1301
1345167,25.016213421,121.470113202,"中山保齡球館",73
330811,25.03277022,121.529084203,"SALT & Bread 卡比索俄羅斯餐廳",33
264425790,25.080932549,121.471651541,"蘆洲監理所",2
241686296,25.096122873,121.516596679,"台灣科學教育博物館",6
114223273,24.992858069,121.516127933,"朱利安諾義大利麵坊",2
240323682,25.0406845,121.523777376,"Meowvelous Project",21
36756,25.012926062,121.465149477,"新北市市政府",1166
67985893,25.067647135,121.492675686,"燒肉一筋",55
269167725,25.007149704,121.517797427,"台北永和",4
36132060,25.042619976,121.538157187,"找到日光",30
242143740,25.038018335,121.541802861,"新竹清華大學",4
43892278,25.047642406,121.566208479,"Green Park",74
99667598,25.047591,121.559327,"松賀日本料理",1
75129312,25.016437531,121.537208557,"台北帝國大學",3
2709015,24.987859047,121.57492572,"MOS BURGER",38
261469176,25.137020151,121.508411865,"新北投千禧湯",2
70591948,25.025849762,121.539035113,"馬祖麵館",9
98890294,25.038114,121.529137,"往芝加哥的火車上，剩8分鐘",1
247113000,24.996548282,121.510896911,"台北動物園",4
132958373,25.037358,121.549961,"維納思舒壓館",2
104728548,24.991156372,121.511409518,"拿坡里披薩炸雞",1
54443707,25.058368873,121.531762418,"盧記上海菜館",7
25541082,25.020451925,121.498292685,"仁愛國寶",2
233749,25.057922112,121.540249231,"民生商業大樓",12
67675365,24.985845827,121.567434729,"貓茶町 高師傅果子工房",43
223862217,25.083601431,121.546008001,"實踐大學H棟",24
1770139,25.03365791,121.517591964,"勞工保險局",18
1173483,25.058363781,121.611626684,"AMD",2
252687115,25.007894861,121.507792008,"雙和太平洋Ucc Coffee Shop",1
157186733,25.034936949,121.554756761,"LiaoMaMa魷魚羹",1
36488296,25.048148573,121.536619517,"宣美飯店",5
23981316,25.057214,121.524032,"台北65小巷弄",9
251649107,24.994019891,121.502963614,"來自星星的你",2
949504,25.084042,121.523827,"士林夜市303號 廣東粥",1
1513734,25.052754,121.528198,"亂烤 串燒居酒屋",17
241127340,25.051438808,121.534272866,"伊通街",1
105984734,25.06504629,121.49808299,"三重客運",2
146209,25.052345861,121.594784907,"南港高中",104
21828734,25.029834785,121.550645099,"蝸牛義大利餐廳",27
261435184,25.035052436,121.555388419,"洛城河粉",2
340464,25.091075,121.5598345,"市民大道高架",1
9071941,25.041020488,121.518926483,"Mr. Brown Coffee 台大醫院東址",10
167348553,24.98734285,121.577500635,"Butterfly Cafe 蝴蝶漾",7
83599597,25.038061897,121.547289784,"沾美歐式餐廳",3
12834505,25.025789,121.47142,"紅豆餅",3
94735301,25.033883652,121.54625776,"日式威廉",1
240503227,24.998858309,121.547285696,"臺北市私立靜心中小學",2
429033,25.131747499,121.466609712,"國立台北藝術大學寶萊納餐廳",37
244280438,25.062937003,121.518407644,"台灣科學教育館",2
104123753,25.045942072,121.506909141,"西門邑居 EzStay Ximen",2
8265072,25.056144547,121.522723813,"curry champ",2
57322691,24.987637602,121.577495061,"政治大學莊敬二舍",8
9977125,25.049783622,121.540470062,"歐廚義大利麵",15
246677849,25.064268895,121.487726175,"台北轉運站-和欣客運",4
419456,25.037711,121.577844,"施家麻油腰花",10
399427,25.036933923,121.558019447,"籌學費",64
264728164,25.036893786,121.587542223,"松山慈惠堂",3
267947326,25.040466737,121.515374338,"臺北二二八紀念館",3
234743992,25.004747969,121.603908936,"東南科技大學操場",4
11686260,25.041140807,121.522350219,"台北动物园",17
599602,25.041823658,121.504919368,"東京凱悅別館",160
28780708,25.042376281,121.502748784,"輝祺早餐",1
4664439,24.988121021,121.552311909,"7-11 華興店",6
7756521,25.030204,121.527321,"d.cafe",14
270596522,25.011843086,121.495548404,"河濱自行車道新店溪東岸華中橋下",2
1119577,25.034312938,121.567640961,"奧美新男廁",1
242898825,25.039070142,121.550734011,"寬心園精緻蔬食料理（台北安和店）",6
86273576,25.062093,121.551092,"Gate 12 (TSA)",2
1233013,25.071026142,121.531803932,"花博天使生活館",17
148838522,25.076209661,121.575784031,"王家乾麵",2
23714632,25.035478592,121.559806824,"PricewaterhouseCoopers Taiwan",6
239838532,25.014335472,121.531124472,"台大水源7-11",6
34024469,25.034972,121.549582,"Soweiso",3
147392,25.000451656,121.55191493,"興隆公園",102
229652782,24.992498723,121.542702133,"愛買景美店",4
170845227,25.114173042,121.527490684,"Ivy's Kitchen",4
11467453,25.045143,121.513868,"老蔡 水煎包",1
92450705,25.03874588,121.517982483,"信義中山路口",1
236296631,25.133633888,121.53935332,"屋頂上景觀餐廳",1
81747452,24.994389175,121.589742859,"木柵動物園-兩棲爬蟲動物館",69
288013502,25.061047068,121.500783489,"台北小巨蛋",2
160750513,25.054921,121.54794,"龍巖人本  總公司",1
255014,25.043103,121.530442,"盧記牛肉麵館",18
219504004,25.037967,121.552897,"仁愛路上安全島",2
134032712,25.035289,121.528586,"雨",7
311792,25.052635207,121.535973667,"書香花園",11
23702346,25.041079,121.532184,"拉婓爾藝術生活美學空間",9
3291922,24.982384339,121.565723549,"恆光橋",158
256698346,25.036712867,121.500105439,"Lung Shan Temple",10
239552267,25.048331058,121.578807722,"好樂迪 Holiday Star 松隆旗艦店",11
77789098,25.112638,121.529319,"小黑 Black Coffee 咖啡簡餐",4
258490176,25.074903781,121.523514705,"圓山兒童樂園",5
64967591,25.002923406,121.584227463,"風動石 公車站",3
66099310,24.987742224,121.577138367,"政大 憩賢樓 金色漁家福利餐廳",7
234723451,25.019693254,121.531824516,"Chelsea's",16
111410802,25.086038,121.591828,"保寬商號",11
59637832,25.05121983,121.521987777,"公車中山市場站",1
5665703,24.990009753,121.509960699,"純檸檬泰式小吃",24
3962533,25.089483693,121.488091527,"Starbucks 星巴克",20
125948914,25.05298848,121.511459707,"2013臺北大稻埕音樂煙火節",85
242174886,25.018910374,121.527938456,"Grandma Nitti's Kitchen/中西美食﹣辛亥店",3
256603074,24.911419454,121.496942208,"康橋雙語學校秀岡校區",3
80205,24.971448145,121.53664628,"中正國小",29
261443679,25.027135926,121.54366697,"英國藍",1
221982484,25.136667393,121.508882377,"百樂匯溫泉會館",12
23993326,25.057259734,121.538937721,"Universal Music Publishing Ltd",1
251253355,25.06830688,121.532715264,"上引水產-立吞",11
222041461,25.052235028,121.529316528,"呷食益 Just eat",23
247124924,25.033496476,121.500289834,"侯硐貓村",8
9835440,25.062484518,121.542728813,"樂興之時音樂理想國",4
13112884,25.043898689,121.505905315,"師傅的店西式牛排館",3
12285197,24.974033,121.541536,"摩斯 MOS BURGER",7
10702144,25.062174,121.530227,"民藝埕",2
3606893,25.136473203,121.496385265,"古店港式餐廳",1
8455913,25.084916,121.574211,"C'S HAIRDO",2
259584260,25.082459033,121.561210054,"Shinnyo-en Taiwan 真如苑台灣",3
18265580,25.126616232,121.501728191,"小張媽麵館",2
3610078,25.049073701,121.52496535,"第一金證券華山分公司",124
428020,25.113717687,121.531291042,"Rose House Tian Mu",6
37854169,25.022227882,121.528515294,"Eureka! Eureka! Eureka!",22
2225900,25.041188609,121.580708194,"傑克漢堡",19
65770146,25.044591566,121.533027828,"倉庫藝文空間",18
222112595,25.134379164,121.471313743,"國立台北藝術大學美術學院",6
12773425,25.040971025,121.543121338,"Haggen-Dazs(Sogo復興館）",9
217973102,25.045054068,121.505944831,"西門町，誠品",13
238746941,25.050304157,121.527690128,"藏Kura日本創意料理",1
245598944,25.064120638,121.52321621,"雙妹嘜",13
13321749,25.024372826,121.546714204,"樂食堂",12
1686781,25.037105161,121.543654266,"Dante Coffee (復興仁愛店)",29
114284,24.993315,121.517168,"二十五番丼の屋",3
1756029,25.043578868,121.554931929,"米魯燒肉",11
275802106,25.01273396,121.533919202,"享你好酒不見",1
3197907,25.013099382,121.462757624,"正隆廣場",3
14010963,25.034063,121.551699,"Al Dente",10
25037456,25.014750339,121.515809344,"公車捷運頂溪站",12
151912361,25.041019627,121.543105245,"嘉禾屋Sogo復興店",55
19224515,24.992609,121.510745,"頂好超市",1
46959324,25.099102617,121.54851556,"至善藝文中心",2
213187017,25.030333934,121.55238268,"NOX Taipei",16
262071136,25.003578032,121.518585026,"復興商工",4
275163,25.01423706,121.534860134,"捷運公館站（公車站",1
245456129,25.072105423,121.608765622,"公視電視台",15
143322586,25.067245218,121.539054801,"龍江彩虹公寓",1
256106659,25.001091649,121.553848787,"韓月半飯",1
82877299,25.037957841,121.564731387,"阿官火鍋專家 新光三越信義A8",7
293595113,25.035900933,121.567854451,"Nike Running Club",2
248007829,25.041050082,121.564955753,"統一阪急 Cold Stone 冰淇淋",2
38945920,25.06231,121.545112,"身長腳日本料理 Long Legs Sushi",37
237885398,25.077104024,121.544426405,"大直橋下河濱自行車道",25
96661,25.069133846,121.576168597,"金泰食品",79
219076834,25.033321244,121.544681216,"Daan Station",2
69781768,25.037898,121.567032,"Outdoor Forest Park @新光三越A8",2
51847457,25.038086183,121.533440415,"無老鍋",12
263801787,25.031788104,121.511844294,"國立臺灣藝術教育館南海劇場",10
129008721,25.053252452,121.594910434,"南港高中站",8
262989768,25.054088773,121.512778352,"九份",1
198251872,25.095850166,121.516601184,"涓豆腐微風店",64
112339911,25.027923357,121.514030474,"泉州街公車站",2
244868139,24.990530284,121.502274593,"Leo's",7
518898,25.109471,121.525257,"Soo Who BBQ & BAR",9
213538462,25.042285765,121.531101886,"沐樂咖啡",80
255268173,25.052526431,121.538716133,"LOCO FOOD 樂口福",11
244559478,25.049364892,121.514435149,"Main Inn Taipei 梅樓驛站",4
254743682,25.041425766,121.507802291,"Forte Orange Hotel",2
80307913,25.059872517,121.550176826,"公車富錦街口站",6
112452453,25.03505091,121.55109107,"珍香鍋貼",6
247120856,25.036124633,121.548679349,"Paul",4
70029242,24.922461858,121.546463858,"屈尺國小",7
61899952,25.040097126,121.54917338,"MiA Cafe",63
50774944,25.035041,121.54378,"品悅糖",20
4805317,25.0278609,121.52595925,"中式飯糰",2
132057515,25.058883667,121.559791565,"布拉菲手作廚房",1
878619,25.041186,121.520932,"庭園會館",18
9145406,25.044921,121.504276,"Hometown Development",45
5367393,25.047787049,121.549006138,"黑武士火鍋",16
133584775,25.01347,121.514209,"翁記黑白切",1
138142823,24.956451423,121.535554854,"移動的捷運上",3
226879357,25.017019,121.53295,"Louisa Coffee 台大店",1
270552525,25.096623044,121.544455683,"中影A棚",3
22765790,25.052804459,121.523177882,"7-11 柯鑫門市",3
192539164,25.04813702,121.554909631,"中華一餅 八德店",1
251918719,25.023747522,121.527887669,"師大梁實秋故居",4
74889329,25.115968257,121.517761051,"彈牙彈牙麵店",12
234788286,25.031724352,121.515182428,"牯嶺街小劇場Guling Street Avant-Garde Theatre",34
6393761,25.032605633,121.544964383,"7-Eleven 復維門市",1
145024783,25.051233767,121.553922949,"兩杯咖啡",1
14936690,25.034130763,121.527028417,"信義金山路口公車站",8
222511023,25.080886299,121.59225072,"玄馥 日式料理",2
258578895,24.982618877,121.50805734,"Another。義度空間。",1
46272375,25.049806595,121.542144775,"遼寧街鵝肉(城)",11
25566729,24.963728628,121.520231307,"柴可夫司機",21
145611744,25.088869893,121.523214501,"APHA ( A Prayer House of Asia )",6
252631159,25.051148098,121.519407741,"建成國中",1
54911424,25.062096,121.560086,"CAFE SHOWROOM",9
3606925,25.114106201,121.527710601,"Eddy's Cantina 艾迪墨西哥餐廳",15
209026749,25.043485561,121.466738118,"石二鍋（家樂福重新店）",5
108236157,25.079950333,121.551376343,"My Gym - Children's Fitness Center",4
36958237,25.053779968,121.511214338,"永樂布業市場",9
39620839,24.978453047,121.520859003,"中安大橋",16
109839719,25.03094,121.561116,"貞德咖啡 True Coffee",1
106015565,25.050206594,121.534867733,"胡 台北老店通化街米粉湯魯肉飯",6
37990935,25.014374467,121.473488187,"全家便利商店板橋西安店",1
228394900,25.041021757,121.554045606,"鯊魚咬土司 台北忠孝店",6
61096594,25.047802904,121.562665111,"Amigo Live House",35
237755383,25.033569449,121.53890875,"漢堡王burger KING",3
23367207,25.035129,121.503413,"Fulong station",12
3108664,25.05125303,121.579417849,"顏玲麵線",6
165424392,25.019407,121.505087,"北平上園樓",1
23703777,25.062091562,121.542109981,"Yogurt Bar 優格吧",3
14624802,25.063488069,121.53321182,"行天宮地下算命街",2
3476092,24.991009112,121.493200585,"全家便利商店",6
214294795,25.057892016,121.536508919,"Cozzi",2
7418169,24.974906445,121.534693837,"鯤壽司",9
252713125,25.089837162,121.465145901,"蘆州中正路紅蟳王釣蝦場",2
242981985,25.113904928,121.515859114,"陽明大學",5
237744758,25.059950652,121.542080609,"孚羅起士蛋糕咖啡館",7
235456036,25.0517496,121.550787904,"畏公長生麻辣鍋",8
1048994,25.114756125,121.517889305,"振華公園",28
13758408,25.115804774,121.52812127,"二子山拉麵部屋 二號館",6
236193254,25.012680023,121.465867,"新北市政府觀景台",7
1953023,25.025,121.541643,"聖約翰幼稚園",1
118377453,25.040949718,121.555216225,"彭家園",2
1571218,25.081826815,121.570399972,"宜蘭正常鮮肉湯包",2
1094883,25.060585189,121.520955563,"鍋媽媽",82
1475633,25.039257999,121.537800369,"建國高架橋",12
71180509,24.989578323,121.558656693,"私立再興中學附設國中",16
90263,25.02229299,121.548588032,"BMW敦化展示店",6
274778732,24.995243516,121.481096086,"員山路麥當勞",1
57068756,25.005112037,121.463998798,"健和牙醫診所",2
4404278,25.072511807,121.604801179,"瑞麟美而美",1
7241329,25.10846664,121.535118627,"宅",10
11520461,25.039926955,121.564982215,"GOODWELL CHEESE HOUSE",8
92274661,25.007892405,121.464188843,"展苑素菜餐廳",1
183202289,25.068707,121.480688,"Hi-Life三重商工店4136門市",4
106987594,25.025664324,121.538764889,"和平東路瑞安街口",1
234814480,25.084391554,121.474688498,"黑三代目  居酒屋  串燒",8
850796,25.000336299,121.484845261,"鮮天下",1
256099183,25.033976449,121.564827179,"Taipei 101欣葉餐廳",1
17571513,25.0665304,121.5781898,"Aphrodite",2
251975790,25.025489341,121.551154012,"全安公園",2
48817021,24.988937968,121.57466934,"樂山日式食堂",12
246442005,24.981286099,121.567545903,"恆光橋下河提",11
113170890,24.983560946,121.537387797,"1010新湘菜",16
32743047,25.068471985,121.510918779,"牛爺爺-生炒沙茶牛肉",1
264656966,25.042059984,121.506090523,"Sol",2
194588732,25.045750306,121.504979557,"Hotel Cheers",17
258554649,25.070172085,121.538366466,"濱江街看飛機",10
268889581,25.07314027,121.552365096,"國道1號高速公路",3
55507,25.023053255,121.542734388,"此燈亮有餅",5
1887673,25.033159788,121.583620003,"虎山步道",102
266537505,25.054950182,121.495336614,"北車微風美食廣場",2
160996,24.997807945,121.487148892,"浩呆麵館",4
57285287,25.043693542,121.547111511,"兔子兔子美式餐廳 II",17
178448118,25.136552,121.528998,"草山文化",7
6918766,25.050627435,121.539891081,"行政院體委會大樓",4
256699909,25.133820047,121.471899668,"台北藝術大學圖書館",4
2172977,25.052751563,121.534001827,"彌敦道茶餐廳",19
246266809,25.04376259,121.46750994,"石二鍋-重新店",2
240529019,25.061036173,121.564817125,"高寶酒窖-Global Wine Cellar Limited Taiwan",2
2085674,24.991544897,121.494371844,"Starbucks 雙和醫院門市",25
264710670,25.04324284,121.568865653,"角子虎-永吉店",1
221510763,24.998213031,121.522640173,"漢口沙茶魷魚焿",1
98314325,25.058440844,121.566637668,"OK Mart 台北新東店",1
89279427,25.054418,121.542482,"1+ Cafe",2
478390,25.028978869,121.532197073,"ecole",28
3748326,25.078252269,121.546564377,"SEASON cuisine pâtissiartism",596
265538,25.04306575,121.50351584,"台北市萬華區西門國民小學",21
16312845,25.048833925,121.563934306,"The Richforest",1
111340591,25.078685,121.580703,"泰陽花 泰式養生館",1
44739207,25.057981491,121.530204773,"Musecat",5
252026193,25.005783591,121.519769903,"新北巿永和區",4
21548981,25.02537854,121.537177563,"starbucks coffee",12
938857,25.021822046,121.468837603,"板橋花市",54
253658124,25.076697414,121.489431761,"剝皮寮老街",2
83419924,25.039901778,121.536962986,"黃河魚館",5
3020806,25.048751411,121.52104542,"城市綠洲中山店",36
3837117,25.053443058,121.517855848,"滋養",1
105591502,25.044178,121.544802,"あんず 和心とんかつ",7
77855817,25.124325727,121.531291042,"Home",1
212987413,24.986848156,121.5738103,"政治大學大勇樓",16
257606047,25.099237672,121.536271778,"小油坑",1
1692272,25.068865364,121.612839869,"五花馬水餃館東湖店",19
113881322,25.038288239,121.527432113,"王文政清粥小菜",10
414281,25.053936057,121.576475134,"成美橋",4
251818177,25.083283776,121.554443483,"Starbucks 星巴克 - 大直植福門市",4
14028356,25.089809765,121.5427093,"菊三哥愛的窩",8
164664,25.025400145,121.517819741,"康樂意小吃店",33
1873451,25.033855541,121.550293895,"阿正廚房",6
252775221,25.118111473,121.5321302,"鱗漁場日本料理Hokkaido Fishermans Cuisine",3
160061715,25.03343025,121.531650667,"Together",14
21076,24.9872218,121.512377,"樂華夜市",2
542676,25.054701942,121.522974734,"Louis Vuitton",63
115409516,24.991614607,121.542500236,"海躍食堂",5
75216807,25.010123557,121.505994544,"McDonalds",5
20586360,25.063043894,121.515530526,"阿法写真館",3
240532283,25.094654641,121.54639691,"東吳大學音樂糸琴房",2
135072113,25.001113,121.551423,"Ami 阿米自家烘焙咖啡",1
94768444,25.043347325,121.540515499,"台北捷運大眾運輸系統",16
35494905,25.132580524,121.470342278,"Department of Dance",10
174628957,25.03474,121.52592,"Cama Cafe 東門店",6
8900089,25.0301943,121.529637865,"Encore Pasta 安可義大利麵",20
253744201,25.043845113,121.59591993,"九份",6
96533283,25.056247975,121.540264617,"東吳大學合江學舍",6
225701121,24.978922994,121.589722884,"木柵指南宮  迎仙珍館(Zhinan Temple Ying-Sin Café ）",5
68526602,25.035699844,121.545188904,"Gain 6 degrees 喬安.拾豆",58
238596022,25.01674819,121.533866752,"台大傅園",10
11344058,25.095037,121.497806,"花堤會館",1
1201787,25.046273692,121.471513604,"捷運先嗇宮站",32
239198047,25.03799503,121.566887181,"信義＊伽立略Galilei Family Brunch",4
247789675,25.03505257,121.542108542,"丹堤咖啡復興南路店",3
248268183,25.094714792,121.523180509,"全家FamilyMart",7
6375777,25.026534686,121.550633949,"珠寶盒法式點心坊 安和店",45
62433311,25.05438,121.54602,"日本交流協会 Interchange Association Japan",10
249734893,25.026248874,121.586505298,"九五峰峰頂",1
234286962,25.114175923,121.536515247,"天母棒球場運動公園",6
243610045,25.061617807,121.575101464,"美福食集 Fresh & Aged",8
263703745,25.026659187,121.476632034,"85度c 咖啡蛋糕烘焙專賣店",1
239202510,25.055794489,121.510101556,"大稻埕迪化街",29
89971384,25.054131,121.540995,"Coffee Remus 興安店",2
238902,25.018979727,121.531627835,"So free柴燒比薩",147
245515792,25.022912682,121.551825626,"明進文房具",3
18424259,24.990120153,121.504388406,"樸石麗緻",18
269938035,24.999423453,121.557950704,"萬芳醫院急診室´Д`",1
145275172,24.982164571,121.509820186,"和平世紀",3
3754940,25.064723505,121.534683744,"鍋神日式涮涮鍋",9
124185840,25.003595424,121.536735485,"景美市立圖書館",5
13564999,25.035816867,121.561476142,"美而美早餐店",1
60306558,25.05370195,121.52079643,"86Shop",1
3373054,25.06239,121.541042,"摩斯漢堡 MOS民權店",27
89300772,25.056213,121.520646,"巷仔內大腸煎",3
1737842,25.020507963,121.46277715,"六根日本料理",59
51121175,25.053058192,121.489413434,"北海道鐵板燒",1
12591877,25.054786,121.550975,"Just 品集生活",8
274719993,25.03606194,121.528404455,"台北巿臨沂街",1
234913207,25.085259898,121.505630515,"重陽大橋",17
269761707,25.054942461,121.518169431,"全家便利商店日新店",2
2322915,25.028299587,121.538413648,"呷尚寶早餐店（老闆是拼命的瘋子）",5
180744532,25.042848,121.563663,"韓川館",13
146308836,25.072714967,121.516484081,"Confucius Temple",18
6426987,25.048130182,121.524680182,"華山公園籃球場",40
241842477,24.999538453,121.558081394,"木柵動物園",1
110254195,25.080568553,121.567501615,"Shan Shan CHA",1
236040639,24.995246698,121.583996567,"台北市立動物園亞洲熱帶雨林區",17
1156600,25.109431991,121.533030868,"McDonald's",3
542200,25.037917,121.544569,"家裡頭",2
8744228,25.037695212,121.557809114,"公車仁愛光復路口站",30
102549999,24.983301349,121.537398948,"鮮五丼 DonMono 佳瑪店",2
4106725,25.038480012,121.537560632,"宏盛帝寶",40
82620421,25.081986631,121.485464401,"早餐工坊 Brunch",1
949887,25.094470112,121.524597339,"百八魚場",88
10472708,25.014353604,121.543112181,"國立台灣科技大學體育館",115
72781301,25.092500855,121.531291042,"Isabella's House",5
265553,25.045059,121.53191,"光華數位新天地",1
96303463,25.082996127,121.471184282,"周烏豬蘆洲切仔麵",1
216357909,25.050894517,121.56416284,"World Gym 南京店",10
11081604,25.054411888,121.550633949,"越苑美式越南河粉",8
266286385,25.082814347,121.603445629,"大湖公園泳池",2
171463986,24.999695838,121.519871645,"我家",2
238000993,25.004139705,121.473554275,"新北市喜憨兒庇護工場",1
76068656,25.067581486,121.497980361,"阿沙鹹圓",1
540114,25.059345335,121.561576477,"二馬蕃茄牛肉刀削麵",1
9260518,24.967496058,121.529710349,"溪洲部落",9
103231615,25.002087,121.510929,"5 Loaves 2 Fish",4
243672316,25.025737125,121.529585973,"極簡貓咖啡館",16
39979361,24.996649242,121.51480002,"吉野家",4
1101805,25.054113058,121.561447615,"台欣動物醫院",2
38411743,25.0760746,121.564041138,"Ramp Bike Entrance To Keelung River Bike Path (not stairs)",1
156548359,25.044075223,121.513110358,"舒果 新米蘭蔬食",48
269852738,24.952890916,121.543100478,"不一羊丁骨羊小排",1
27207433,25.039454456,121.531291042,"新生南路一段145巷",1
30249109,25.056737089,121.548263247,"Amway",4
51345227,24.992767438,121.504700713,"飛行五號",6
255364309,25.014030927,121.538810179,"台灣大學食品科技研究所",6
276435888,25.051713032,121.578250061,"忠孝東路",1
215000118,24.967913851,121.591624348,"貓空の貓空閒咖啡",17
27354058,25.116086548,121.515681088,"山崎 Yamazaki",1
509776,25.042031716,121.553086772,"馬辣頂級麻辣鴛鴦火鍋",146
85582022,25.063019081,121.576034835,"韓牛料",2
3126368,25.031509241,121.547941358,"7-ELEVEN",1
70817620,24.994916932,121.48530364,"福朋喜來登酒店 Four Points by Sheration Zhonghe",4
1433243,25.008117,121.513974,"零時差-永和樂華店",34
1478049,25.038036076,121.568800311,"巧克光廊 Choco Art @ 寒舍艾美酒店",5
235369424,25.025446016,121.531212662,"找到咖啡 Café trouvé",64
11209581,25.077936204,121.508989263,"Zhong Shan Bridge",18
59385443,25.017254214,121.530424033,"Mr. 拉麺",6
236953869,25.060447631,121.557046048,"Beams Taipei",12
8523562,25.052609887,121.525333359,"米塔手感烘培",1
3033546,25.028816611,121.55378399,"廖家涼麵",4
692776,25.038998358,121.547010365,"紗舞縭 shabu shabu",86
49284282,25.049903796,121.561834425,"中崙高中籃球場",9
101878202,24.97221,121.540773,"Mos Burger",1
275615919,25.051105399,121.521592755,"讚力24運動健身舞律倶樂部",2
236873831,25.074329095,121.580485889,"JokeR Coffee Shop",16
76755790,25.000325225,121.511069347,"Parco 披薩、意大利麵、甜點",25
194484871,25.060672,121.557837,"Fujin Tree 353 Cafe by Simple Kaffa",296
145259527,24.98704807,121.578334009,"金鰭",16
250462518,25.05616572,121.510738971,"小停留　果汁．甜點．派",9
95468193,25.030273,121.552536,"BAB FURNITURE DESIGN",8
18669376,25.1136555,121.5284855,"糖朝",7
1375886,25.110639,121.525117,"鴨覇王",9
9185798,25.042761666,121.543163665,"川巴子小館",3
236921629,25.032917285,121.558161849,"WXY",3
11334804,25.120645632,121.54775739,"湧泉寺",2
253861410,25.047221965,121.517043886,"101 Taipei Tower",15
260575004,25.060342939,121.574910821,"3R3H - 3皇3家複合式餐飲",3
3035543,25.032567426,121.516132772,"路易莎咖啡",5
265582677,25.081954931,121.569333546,"N.Y.Bagels Cafe 內湖店",2
638479,25.042668,121.569388,"君悅排骨飯",3
63556268,25.029399654,121.567672896,"信義國中籃球場",7
165735385,24.995179,121.502035,"三媽臭臭鍋",1
1299787,25.007971712,121.50790631,"世界宗教博物館",50
268700450,25.080120474,121.560074771,"大直美麗華",2
9568553,25.0319122,121.5298487,"向日葵生活館",1
215002941,25.035844536,121.568025313,"曉確幸 Light House 信義neo19",5
227619825,25.045725171,121.4684789,"三重湯城園區",5
493635,24.982802,121.536759,"鍋大爺蒙古火鍋(新店民權路)",1
180304696,25.048184,121.542108,"歐廚",4
461103,25.044260765,121.54491616,"515 Cafè",467
111993559,25.129044454,121.469599972,"大邱館韓式料理",1
253758773,25.041965397,121.551948712,"台北東區 三田製麵所 忠孝敦化店",14
99669377,25.011073674,121.463862331,"板橋國稅局",3
280037069,24.998965097,121.506920473,"7-11",1
94388756,25.081406187,121.547774662,"棗點Breakfirst",189
239191691,25.020364838,121.540308928,"台灣大學外語教學暨資源中心",1
236355075,25.040328127,121.532232284,"濟南路",3
2397110,25.024961397,121.465360163,"櫻桃妙妙屋黏土教室",3
35945026,24.975127443,121.546926742,"""My Way"" Condominiums",2
216733185,25.03964209,121.560294999,"Sun Yat-sen Memorial Hall (Taipei)",215
16581583,25.014103474,121.530691663,"台大修齊會館 Hsiu Chi House",9
8380628,25.064307893,121.55070642,"松山機場觀景台 Taipei Songshan Airport Observation Deck",77
234329738,25.048636474,121.536594419,"うまい屋 Umaiya 好吃居食屋",1
659579,24.955012207,121.536673995,"Waterfront",52
265518479,25.033836848,121.551686587,"旬採二店",2
525212,25.022437953,121.526233085,"錢都涮涮鍋",20
7416817,25.04106,121.504826,"Si Men Ding",1
149567788,25.027772869,121.472824355,"海生樓",4
251700062,25.040059407,121.520773817,"台大國際會議廳",3
15998525,25.026070234,121.535497754,"74號公車",1
273720731,24.993396011,121.542109957,"雖然很累但很好玩",2
51553065,25.033995182,121.543648691,"PHOTO TAIPEI 2012",1
9775429,25.00604679,121.557568612,"上興工程行",3
14953307,25.049947,121.556397,"伯特利影像製作有限公司",27
2500649,25.04862707,121.546286446,"菊川日本料理",89
213060436,25.000320942,121.558879316,"臺北市立萬芳高級中學",10
740887,24.988282,121.576385,"熊威超市政大店",3
264666684,25.060880366,121.562320754,"Caféshowroom",1
46133964,24.980745918,121.541880586,"國華中醫",1
7949406,25.052214356,121.54096151,"Liaoning St. Night Market",21
88090,25.041035107,121.565010085,"Arrow Tree",370
273184977,24.985757123,121.51116642,"家",1
2207333,25.044806617,121.539389314,"市民大道上散步",14
253793884,25.045041759,121.545202528,"博多拉麵微風店",2
46980702,25.044781795,121.587220458,"成德國中運動中心",44
62090361,25.032943497,121.569078999,"中華電信台北東區服務中心",1
523621,25.033771,121.561195,"Taipei International Convention Centre",13
303536,25.084461313,121.577394741,"市立麗山高級中學",91
169882894,25.022772506,121.528260664,"師大富閣",3
23723790,25.019592154,121.528533875,"Loop Music Studio",13
326618,25.056344764,121.524630795,"世界豆漿大王",25
264577313,25.03602988,121.547897053,"寶吉祥咖啡",1
237853310,25.041022578,121.565050074,"可瑞安韓國料理",8
77056992,25.079227,121.577102,"台北市立圖書館西湖分館",16
257554341,24.985035516,121.579849346,"Old Ginger Cafe & Vintage",10
67237,25.03313,121.556631,"COOOKIE",10
227581571,25.039344749,121.516562238,"反核4，凱達格蘭大道",25
2818261,25.059788242,121.557776928,"遇見未來",5
3731023,25.054734699,121.550697236,"馬旦馬須法式料理",133
272578,25.012467552,121.495399475,"華中橋",125
276271120,25.0561922,121.53821826,"旅沐豆行興安店 Coffee Remus-Shing AN",3
8079657,25.082215863,121.565985523,"麥當勞 McDonald's",30
237997683,25.131889835,121.468099624,"臺北藝術大學",12
7463457,25.03358133,121.537900724,"Jiango Holiday Jade & Flower Marker",1
257157912,25.021876599,121.543506295,"DV8 Taipei",1
1422864,25.041758,121.50596,"内江商旅",3
1624375,25.021470731,121.499698097,"光仁小學",8
18020683,25.052164,121.568176,"攝影棚",14
72774019,24.986038572,121.570501328,"松町和風小舖",5
25723791,24.988800581,121.562529648,"文山一分局",10
279181758,25.034621812,121.475657755,"捷運江子翠站3號出口",14
235951257,25.033339122,121.539698598,"American Institute In Taiwan ( AIT )",4
1388349,25.058643201,121.556462225,"民生炒飯",122
42977289,25.035391347,121.54392744,"豪城大饭店（复兴路）",2
53076461,25.122947714,121.526593503,"IPO汽車美容 天母店",1
183184359,25.006686,121.517129,"茶湯會 Teapatea",2
258025,25.043012,121.545831884,"MK麻辣火鍋",17
32064,24.999042076,121.481359048,"台灣 Taiwan",526
1065168,25.038378884,121.526418888,"恩承居",1
9461523,25.035128247,121.510372272,"元大一品苑",4
1624025,25.059431688,121.565851215,"鴻金寶臭豆腐",7
64917170,25.118690913,121.515933071,"好日子咖啡 MD_cafe",21
223122653,25.079461284,121.592834955,"台北內湖",19
1547374,24.997957417,121.54946976,"仙岩公園",32
29332465,24.973108852,121.5427093,"我家",5
2713846,25.029263318,121.473761528,"台新銀行 江翠分行",4
229666416,25.012111369,121.46502459,"誠品新板館",1
235381855,25.035254225,121.556029295,"大鼎豬血湯 - 東區延吉店",2
270051276,25.051402687,121.518442551,"台北現代藝術館",2
25853696,25.116409713,121.519871645,"Tian Mu",13
39226814,25.067360394,121.517416621,"老地方牛肉麵",7
146417,25.082579491,121.571137603,"7-11福湖門市",7
106890924,25.068606166,121.52645228,"憲兵司令部",16
228384090,24.994824042,121.501496266,"九份老街",2
115389268,25.020229196,121.525521944,"台北市客家文化中心",8
1800690,25.043259859,121.577480435,"虎林跳蚤市場",1
45769291,25.107505286,121.545438251,"草山玉溪美術館 Garden 91",14
4462271,25.110574829,121.530663785,"TEN屋@大葉高島屋",53
124246411,25.133629535,121.534452438,"菊地英隆",5
234708042,25.072531919,121.605056535,"法瓦奇朵",7
93404853,25.057345,121.535109,"市立大同",3
222647631,25.035058,121.493358,"NTCB",2
13360472,25.043867,121.541753,"米奇日租 (Mickey House)",10
219816748,25.033408619,121.531618442,"Together Cafe'",6
11113007,25.097799701,121.524501684,"士林王家文林苑",54
262267941,25.119313417,121.518991018,"Taipei Veterans General Hospital",1
46595188,25.059657645,121.522941278,"See's Candies",5
687582,25.021038494,121.479211489,"台灣優力板橋三民站",4
236677247,25.078924566,121.556973592,"大直基河國宅",1
245449425,25.083387009,121.553378836,"Moooon Spring Cafe & Play",7
11778,25.034988585,121.537839396,"Magic Lamp Coffee",9
264038493,25.062138297,121.484757404,"堅持夢想、永不放棄。",2
260711819,24.994906608,121.5415831,"景美榆小舖",2
1363015,25.049226,121.523609,"HNCB",1
5970,25.072684532,121.493736506,"三重交流道",31
42772928,24.949206419,121.554126418,"sweet home",1
4692409,24.97880609,121.461979361,"新北市後備指揮部",5
2586500,25.082166,121.545291,"兄弟麵店",2
219686169,25.035266,121.466011,"大漢橋下棒壘球場",2
97697930,24.9996,121.51745,"鯊魚咬土司",133
99671406,25.103988894,121.524703282,"FlavorField@天母SOGO",5
111389123,25.029319868,121.550997535,"瓦城泰式料理-安和店",11
49962739,25.072010645,121.512608473,"清粥小菜",4
43735,25.019043017,121.533689597,"臺一牛奶大王",648
166484235,25.048241656,121.520676613,"Youbike 臺北轉運站 Taipei Bus Sta.",20
108605092,25.013386,121.468777,"五井拉麵",8
1129380,25.057736921,121.529515359,"史記精緻鴛鴦鍋",86
1384879,24.996151877,121.464350224,"7-11",9
244926134,25.014350589,121.467541212,"Mega City 古拉爵",12
277160931,25.13299424,121.502895095,"Part Time Su",1
11902564,25.082282251,121.5968385,"大湖公園家",3
269896271,24.984022225,121.569600971,"Taipei Zoo 臺北市立動物園",5
2325846,25.05310474,121.52096886,"La. Bettola Pasta",14
13739104,25.03327975,121.54304659,"The Corner",3
2382804,25.052202,121.554097,"Zoe House",7
247090239,25.033614568,121.558834919,"WAKE CUP CAFE 覺醒咖啡屋",1
256245507,25.135448723,121.54585119,"陽明山",108
929889,25.014956523,121.533905268,"Starbuck (公館店)",37
267309025,25.107578261,121.539108263,"華岡藝校",1
215015416,25.005708346,121.478094492,"二男小家料理",36
254530986,25.061068511,121.587991192,"W photo studio",1
125038136,24.983623505,121.563285828,"保儀公園",4
88690999,25.067296,121.609621,"內湖高中體育場 NeiHu High School Gym/Track&Field",10
72364189,25.025278,121.531623,"泰順街無名甜湯冰品",15
15869,25.038010287,121.532960197,"大安分局",21
283201750,24.988720911,121.50452921,"花蓮之旅",1
162231727,24.981865,121.562083,"早鳥吃早餐",1
277263455,25.035783,121.560075,"國父紀念館",1
8950677,25.053009,121.521089,"Forker Zhongshan",6
100344887,24.990738993,121.473465873,"探索",10
243731387,25.08380449,121.566439847,"台北市內湖區西湖國小",1
283473,25.02763408,121.513573205,"三元豆漿",2
179595,25.037339,121.563076,"Taipei City Hall／市政府",47
18012779,25.027341775,121.564700725,"艾美寒舍酒店 寒舍食譜",3
5839242,25.012993889,121.536067125,"SUBWAY 台大店",6
175067571,25.026311997,121.563237553,"Love Lovely 美好生活古董行",9
11625,25.058228001,121.50987301,"迪化街年貨大街",973
127012342,25.043907253,121.521759158,"登打士街",126
35162728,25.019746253,121.546944749,"法務部司法官訓練所",4
234968560,25.047327714,121.575659772,"立法院",4
36785941,25.117179375,121.534282312,"横浜咖哩 三越天母店",1
31434636,25.034102995,121.562111591,"SUBWAY潛艇堡(世貿店)",1
49127492,25.05123,121.544109,"喫茶趣 to go",1
509948,25.003546705,121.51162684,"永和加油站",4
1588405,25.040268048,121.504377252,"D-cup Cafe shop",9
71891875,25.035105,121.520918,"Ⓣ中正紀念公園 Chiang Kai-Shek Memorial Park",2
112393764,25.016981104,121.542115556,"教職員餐㕔",2
167345489,25.08316695,121.595434247,"Alley Cat's",8
271552110,25.036006057,121.558838962,"Tasweet",5
109550974,25.081476212,121.522613525,"皇悅泰式精緻會館",9
234744946,24.982481521,121.464376767,"清水高中操場",3
276425347,25.048840825,121.521171528,"新紅寶石港式飲茶",1
222544108,25.060398939,121.537253315,"華研國際音樂",2
265678716,25.058887872,121.502532513,"大蹈程碼頭",2
126113,25.018248536,121.558293271,"McDonald's  麥當勞",27
266771654,25.045533475,121.574179447,"全家FamilyMart",1
79971289,25.02456,121.542117,"Belém 貝倫烘培坊",1
102284979,25.052428783,121.528232785,"中華電信總公司",1
3463702,25.004570875,121.539082677,"中國石油加油站",2
169886775,25.082060131,121.545265429,"日木安 Food & Drinks.",93
50847823,24.984498989,121.467998905,"La Casa Dolce",10
90056535,25.017607,121.474992,"板橋區中山路",15
8295400,25.037969102,121.568365556,"探索廚房 Latest Recipe",376
792634,25.041727542,121.511677193,"臺灣銀行 Bank of Taiwan",10
2734747,25.03333808,121.546525353,"中華電信",16
34364910,24.992862,121.514894,"威尼斯室內溫水游泳池",14
8040354,25.040305177,121.537258029,"馬路口烘焙小鋪",1
88096549,25.082336226,121.596164238,"Parsle Bistro",4
24891500,25.058715,121.528927,"The Flower Shop",3
216894695,25.117793742,121.519975699,"國立台北護理健康大學 圖書館",3
141471859,25.071105557,121.596080651,"國防醫學院院部會議室",13
237944257,25.043087338,121.550199946,"大碗燒肉",1
3965633,25.105081836,121.524902973,"太平洋sogo百貨公司 天母店",19
6833250,25.044523669,121.551799047,"原創花鵰雞",20
78280,24.98595171,121.540085657,"台北新矽谷",6
119414180,25.03599005,121.509848069,"捷運小南門站 夜間婦女候車區",3
248903703,25.030013251,121.554297036,"樺達奶茶-通化分店",1
131193295,25.059018,121.512869,"鈞生診所",1
151201420,25.080124,121.479227,"波士迪克牛排 BOSS STEAK",11
107267540,25.026624153,121.520909202,"Goethe-Institut Taipei 台北歌德學院",13
55554527,25.043737335,121.531940597,"玖伍牛肉麵",11
477436,25.007500391,121.513531046,"鬍鬚張魯肉飯",11
32588150,25.063032,121.564311,"水世界水族生態館",8
76157171,25.059091,121.490569,"台北菜撩站华春林套房",2
242859811,25.006562876,121.517024578,"吉仕達義麵房",1
272500242,25.059571283,121.537041775,"邊田庄(建國本館)",4
140647355,25.080934,121.563452,"富邦科技大樓(堤頂大道47巷22號)",1
57233,25.042331871,121.523251534,"CDC 疾病管制局",9
18268788,25.020378539,121.543308615,"台大語文中心",2
17587854,25.05380292,121.604869586,"南港廢墟",5
484001,25.072383278,121.575651169,"MOS 摩斯漢堡 內湖亞太店",12
88955945,25.060477382,121.492130999,"三重捐血室",7
23382962,25.026429162,121.547441118,"de angelos 天使野餐",2
244276102,25.037974954,121.56355988,"臺北市政府市民廣場",3
85033748,25.083919174,121.555957622,"Wego Hotel",22
92633198,24.9831824,121.5346424,"黃金海岸活蝦之家",7
88410,25.040067026,121.532735825,"麥當勞 McDonald's",52
28318229,25.001732,121.509916,"滷味攤",1
21094237,25.031391496,121.565542396,"溫暖的家",10
32178720,25.053091,121.56081,"夥伴生活『健康除臭襪』專賣店",13
213032668,25.071143584,121.592997753,"Tri - Service General Hospital",27
76820632,25.081070219,121.571960595,"金吉利寵物精品",2
98579245,25.06195954,121.556169449,"空軍通信航管資訊聯隊",1
9241750,24.998854768,121.525166082,"民生路站",6
60861403,25.038327053,121.556972265,"Wineshop",1
274671946,25.041924154,121.550067064,"Deicy Nails",6
133578178,24.967280954,121.516526045,"漁人大眾食堂",4
33284899,25.086404813,121.486045658,"野喵中途咖啡",100
9783927,25.055949608,121.520900441,"捷運行政大樓",17
240544010,25.134863764,121.539293282,"大孝6樓高級跑道",6
1091613,25.052469699,121.561038494,"亓家蒸餃專賣店",22
19448395,25.042039159,121.532074411,"爭鮮",5
8367659,25.122576,121.531856,"WOW Bravo&Funky Rap",14
128772208,25.020749999,121.544261939,"台大法學院實習法庭",1
857720,25.079477,121.555088,"捷運大直站",1
259322117,25.055014128,121.523075688,"西門丁",1
214883636,25.09909571,121.587191121,"碧山巖 白石湖吊橋",2
22311559,24.960794,121.509599,"吉料理",5
266675653,24.958179247,121.540524009,"能仁家商 (潔人大樓)",3
268724536,24.98784255,121.57732299,"Myst",1
959691,25.004417582,121.598604936,"壹咖啡＠深坑",3
251968312,25.058263747,121.549185762,"Swensens美國雙聖餐廳",4
105231918,25.023091188,121.546558802,"阿姨的早餐店",1
7174546,25.022754371,121.600906278,"907公車上",1
109170783,25.051998208,121.583397081,"富美海鮮",3
248361816,25.057832106,121.553049049,"美麗的民生社區",4
52831466,25.038970903,121.553097921,"小胖胖客家傳香",10
125524466,25.0536182,121.488660451,"福记豆浆",5
4608096,25.059174383,121.525627287,"凍未條雞肉飯",7
201465176,25.117023516,121.532966497,"Taipei 101",82
86355,25.082444956,121.545107916,"培英公園",28
2927486,25.123784948,121.532408944,"越娘",3
5674165,25.110817905,121.530111797,"chamkar",24
7372423,25.042978268,121.526475549,"麵佳興讚岐烏龍麵杭州南店",1
88096716,25.05010308,121.56482057,"Taipei City",500
109918321,25.057756977,121.518530846,"勇氣即興劇場",2
41238385,25.032069,121.553259,"Havaianas",5
310432,25.028845668,121.50855,"新東南台菜海鮮",16
223727,25.051160091,121.516389284,"新驛旅店(台北車站二館) CityInn Hotel(Taipei Station Branch II)",46
8516744,25.072554544,121.610440058,"康寧路三段",39
236723265,25.053812964,121.547858464,"行天宮附設玄空圖書館",22
278315389,25.0261067,121.5586046,"TMU",2
265634118,24.999838026,121.4743799,"太平洋翡翠灣",1
4297108,25.042135588,121.547848645,"鮮納肚熱炒",11
53264687,24.988383747,121.531918295,"景美河中",1
1028243,25.105247777,121.523604009,"天母SOGO 紅豆食府",38
262905046,25.06329918,121.518831141,"Peris Cafe●Kids",6
9784060,25.083295414,121.472115891,"鵝媽媽鵝肉店",2
254598120,25.080927382,121.471647921,"蘆洲監理站粉絲團",1
103535407,25.123619175,121.53256325,"7-11",1
71011927,25.050801,121.556399,"湘民小館",2
872163,24.952135,121.547061,"郵局口老麵",2
241209689,25.023367602,121.561111121,"政大羅馬廣場",3
54439725,25.080156214,121.590937177,"The Noodle House",1
271532910,25.109297319,121.532865189,"91 Heart Pot ""91 心鍋""",1
130820428,24.957654476,121.536957622,"新店總站",3
39649405,25.077360983,121.588206527,"陽光街",27
429455,25.02264021,121.555048992,"漁潼日式料理",23
128371094,25.046201706,121.509391785,"西門町天橋",15
10443547,25.008618823,121.463374093,"介壽公園",27
160837685,25.008012,121.515159,"呈信傳統鵝肉店",2
256168862,25.036974479,121.546986921,"Vaste Dance Centre",4
706421,25.001529558,121.496764521,"原燒燒肉 中和景平店",78
17663484,24.998542344,121.486761774,"伯朗咖啡館(中和遠東店)",26
111990017,25.007839156,121.516935762,"鱻犇涮涮鍋",3
264727221,25.035808238,121.557520636,"光復南路421巷內",3
32440012,25.021087507,121.530663785,"澎澎洗衣",1
238757395,25.086387124,121.486071563,"野貓中途咖啡廳",5
114202,25.039840294,121.556157157,"導演姊妹的店",150
213071159,25.035386755,121.559792731,"臺北世界貿易中心聯誼社",4
18801007,25.083026524,121.548180495,"玫瑰緣別館大直店",28
72306242,25.0621,121.533134,"田記發爺 吉林店",4
3415281,25.041490839,121.57785395,"三四郎さんしろう居酒屋串燒",184
226938217,25.035673045,121.553038894,"隆居酒屋3號店(安和)",3
23231375,25.050912452,121.516749,"松八日本料理",2
79745881,25.043617,121.555013,"大丈夫串燒",18
261599284,25.096016193,121.528766399,"維育牙醫診所",1
219736909,25.071012699,121.575943026,"亞尼克菓子工房-內湖旗艦店",17
95907650,25.055579845,121.533077763,"泰國貿易經濟辦事處",9
5251264,25.036213,121.518925,"很久沒有敬你了我 戶外公演",8
100580236,24.982779228,121.564369078,"火鍋世家",6
17426267,25.015369,121.51579,"信安按摩中心",1
158727755,25.067104,121.611655,"公車站 捷運東湖站",3
253600286,25.054158497,121.521646616,"KD hair salon",5
60607171,25.06400168,121.530364391,"林家蔬菜羊肉",6
98232670,25.026037792,121.548933666,"圓桌鐵板燒",9
78233987,25.026269027,121.557891922,"嘟嘟房 信安站",2
37800018,25.00394423,121.603935443,"東南科技大學",411
2006833,24.986888514,121.54651809,"摩根漢堡",7
75475801,25.031318305,121.546168327,"Pizza Hut",1
237867385,25.131770851,121.467681386,"國立台北藝術大學鷺鷥草原",18
20065613,25.136735916,121.509117126,"atami hotel lobby",1
33798,25.079653,121.593756,"第一家塩酥雞",2
7401264,25.004169863,121.600293334,"深坑福容大飯店 Shenkeng Fullon Hotel",131
69004856,25.124595881,121.467429879,"Mita Fancy",4
7835092,25.080018,121.567181,"山山來茶 Shan Shan Cha",83
221379424,25.081458484,121.549401768,"北安路",7
251136581,25.018136817,121.544513325,"Living One",1
60497022,25.013485256,121.530262339,"滴咖啡",8
112376632,25.051996,121.578141,"花月嵐 松山火車站",2
236089530,25.063098423,121.551644269,"松山機場捷運站",2
12061896,25.061105481,121.533100722,"7-11松錦門市",7
50963475,25.137323361,121.503044364,"Relax輕鬆輕食異國料理",24
277116611,24.973132528,121.539568773,"7-11建國門市",3
3483002,25.078498721,121.584582,"卡路里 Calories",1
230183489,25.003807774,121.518723505,"復興傷肝腦殘又多鬼",1
217261771,25.136237968,121.539847898,"文化大學大義館",5
240519644,25.063107682,121.500049335,"玻爾鬆餅三重重新店 Pearl Waffle",4
245479938,25.082392256,121.487194948,"三重碧華街布街",1
86780001,25.029288326,121.472852247,"鬼椒一番日式麻辣小火鍋",10
2903607,25.022413445,121.549034011,"BMW總代理 汎德",1
263917910,25.028803036,121.500882551,"淡水河邊",2
38215,25.030058026,121.516379,"福井麵疙瘩",15
31198482,25.040941169,121.55298643,"taxi on the road",2
17094787,25.025578312,121.519051007,"Mini Cafe",18
152374085,25.078498,121.58391,"大沏茶飲",1
837882,25.054865213,121.524931894,"Cartier",1
93788839,25.017726195,121.528394481,"公館森林",4
418668,25.051349752,121.56956782,"司機俱樂部",60
65346517,25.050146,121.524367,"台北105小巷弄",26
20713476,24.968186523,121.588457304,"阿妹美食館",4
49538426,25.095888601,121.525300741,"Subway",3
262985297,25.062096793,121.544169465,"Mister Donuts 復北門市",21
1901361,25.042305138,121.586328106,"玉成公園游泳池",49
252614641,25.045031758,121.506028376,"星光影城",1
2953795,25.025830865,121.531472,"阿月子油飯米粉湯",3
256087380,25.086520592,121.563865522,"歐兔咖啡文湖店cute",1
258780006,25.044857901,121.556665029,"新北市藝文中心",2
269621005,25.045011962,121.541500075,"懷生國小",1
4178311,25.061763,121.523066,"K Hotel",7
100279291,25.036903,121.536899,"顺圓日本料理",8
252158461,24.991301984,121.571763532,"萬壽橋河堤",5
39701172,25.003439669,121.495264223,"Taipei",12
12128720,25.086318903,121.528232785,"逸仙堂",7
98591763,24.984346971,121.533529623,"國王烘焙 Artiste de Pain",5
214853876,25.054083001,121.521784879,"Cafe A La Mode 中山店",22
270721720,25.050352689,121.472060795,"淘客漢堡",1
111880832,25.064132436,121.487355464,"三重兄妹麵館咖啡",5
280289178,25.03679908,121.49784207,"龍山寺夜市",1
3034362,25.02404574,121.534034936,"伊聖詩私房書櫃*Escents Bookcase",128
259439011,25.085032002,121.566637871,"台北市立圖書館西中分館",1
256093415,25.060885511,121.486777655,"惠心婦幼診所",3
1829319,25.079212,121.568834,"台灣酷樂時代 - Taiwan Kuro Times",2
4872330,25.005805492,121.478716135,"田季發爺",2
470232,25.114431,121.527353,"Lutetia",8
111470938,25.011308,121.463531,"Bella Bagels",24
1648905,25.057893178,121.544044515,"1010新湘菜",19
227717497,25.033377686,121.488215801,"新北市新莊體育館",2
74866229,24.911413261,121.49687984,"Kang Chiao Bilingual School",305
263661441,25.049657872,121.554223567,"育達高職五樓大禮堂",2
25711681,25.085650453,121.466548441,"蘆洲李宅",41
242828773,25.038439799,121.547967239,"Da Bar- Relax",10
1472277,25.05371878,121.51166604,"林柳新紀念偶戲博物館",32
60066117,25.035033135,121.565177303,"饗食天堂",10
82073686,25.036376689,121.513695887,"臺北市立教育大學 Taipei Municipal University of Education",85
5175233,25.10504319,121.52493025,"Capricciosa 天母Sogo",20
234247088,24.995613098,121.481506348,"McDonald's 連城店",1
68586132,24.996752395,121.528416784,"新北環快",31
20430758,25.028455393,121.548056735,"旅.東京",68
88073330,25.023790079,121.552651957,"威靈頓街1號 茶餐廳",7
274732036,24.976037252,121.525071118,"湯泉首席",1
1188710,25.136318,121.504131,"山水樂溫泉",3
19019866,25.032343,121.47495,"海生館",5
311496,25.013023085,121.53029461,"自來水博物館",155
60028418,25.042902,121.548895,"asics",10
27349920,25.083715449,121.55754074,"劍南山秘密位置",21
249613185,25.096778169,121.544137693,"中影電影技術中心",2
30989151,25.047642,121.542156,"三代魚翅肉羹",1
81508589,25.078552339,121.581117678,"逢甲阿郎鹽酥雞",2
62362613,24.986954191,121.514074298,"全聯福利中心中和店",1
154613669,25.019891723,121.540276484,"台大心理系南館",2
246345423,25.113574427,121.499081706,"洲美橋下",2
234581586,24.990889854,121.505470248,"陽明山",2
6873859,25.000280725,121.56857736,"萬芳社區",204
264546937,25.072726587,121.541247126,"LEXUS濱江服務廠",7
17688034,25.066740605,121.52472001,"豚の屋",1
305897,25.013661,121.462645,"板橋厚切牛排",17
254638992,25.050019747,121.57194584,"阿池鵝肉",2
9117,25.033583312,121.501235962,"台鐵萬華車站",3
12987328,25.035974647,121.513745785,"Taipei Municipal University of Education",5
45374007,25.026258,121.549036,"Orient Country Club",1
45851523,25.03628,121.523131,"天安門",2
222538836,24.99832522,121.581725337,"台北市立動物園",16
256063,25.045092398,121.548743248,"市民敦化公車站",52
1258715,25.029944,121.56008,"虎堂",1
251180957,25.082061654,121.549457926,"吟翔懷石料理",3
16180936,25.054423297,121.552820206,"麥味登",4
94807204,25.004492241,121.473974199,"想像空間-攝影棚",15
81491,25.0721,121.513829,"摩斯漢堡",7
635615,25.102891,121.523161,"6OZ  BURGER",8
95169113,25.062105152,121.545878668,"太將鍋 民權東店",3
246436,25.007685,121.51725,"楊三郎美術館",11
4315727,25.120368,121.52935,"Beautique Hotel 昰美精品飯店",19
278378641,25.097698596,121.514344564,"台北市立兒童樂園(興建中)",1
6536666,25.08988001,121.468397,"7-ELEVEN (健倫門市)",5
610371,25.03721,121.552205,"kama",2
74341986,24.99945,121.522659,"金仙蝦捲飯",2
221262,25.013346,121.515431,"McDonald's",10
222632931,25.089361009,121.521587903,"士林運動中心  游泳池",6
55262583,25.115325232,121.526548896,"西提牛排（天母）",21
246253769,25.023777348,121.469151171,"後樂園町居酒屋",1
72162502,25.107946104,121.529241991,"紅油抄手",8
90765801,25.03085,121.524018,"天空中",4
8118036,25.081636235,121.556013366,"DAISO JAPAN大創百貨 大直愛買店",2
382134,25.005017,121.466954,"實踐國小",7
785622,25.038919,121.579244,"川鮮風味熱炒",5
300427,25.039848695,121.553975003,"牛爸爸牛肉麵",18
29029313,25.000346,121.50123,"巨鼎鍋貼",2
24969920,25.058062582,121.524003206,"優美飯店",3
466593,25.005568245,121.534025841,"River Park(nabisxHPlusun)",2
124961439,25.050896,121.59478,"貝特旺娛樂 Better-One",4
93039754,25.039299108,121.54835701,"私立復興實驗中小學 Fu-Hsin Private School",12
494057,25.045366,121.529501081,"簡單生活節@華山",116
15508091,24.991032115,121.511331446,"Subway南勢角捷運站店",13
220517377,25.033132879,121.535336705,"大安森林公園捷運站",1
236808907,25.02582701,121.537978035,"文化大學教育推廣部",3
113795769,24.982659706,121.564502854,"全嘉車業",1
218447804,25.032109695,121.519732662,"微客棧",20
257888103,25.045865254,121.518643423,"7-11 鑫台北門市",3
5774416,25.059922293,121.567317679,"262公車上",1
263976475,24.958997446,121.536904679,"烘爐地",1
514234,25.055218056,121.566292087,"臺北市立西松高級中學（附設國中部） Taipei Municipal XiSong High School",152
43086480,25.058453,121.555962,"王俊彰耳鼻喉科診所",3
263851090,25.116748764,121.515886221,"水龜伯古早味之甕中傳奇",1
2386632,25.018106554,121.531609297,"大葉麵食店",4
128067,25.06351,121.582989693,"Samsung Taiwan",3
123514588,25.082284,121.474358,"A+cafe",2
262309681,24.967325279,121.590717553,"貓空四哥的店創意茶餐廳",4
5343720,25.043635422,121.561871905,"松山菸廠鍋爐房",17
93275364,25.0530469,121.560814327,"捲捲義大利麵",16
176548,25.035925207,121.531851388,"摩斯漢堡",7
121846473,25.06859022,121.51861358,"圓山商務會館",1
59861923,24.982909147,121.542684212,"朝鮮味韓國料理(新店民權店)",52
88725580,25.040656413,121.529320051,"歐洲小鎮",6
98239018,25.085,121.566724,"臺北市圖西中分館",6
259636407,25.003107639,121.514671391,"HANA精緻日式壽司",2
40126389,25.032837,121.518589,"小巷亭",8
139534667,25.044887,121.543942,"駭客 Hi Club",1
56624777,24.996135,121.48454,"307",1
136971165,25.072574297,121.51380184,"大龍／大翔牙醫",2
236765852,25.035507272,121.523041405,"中正記念堂",63
106928708,25.091532445,121.517030559,"丹堤 士林中正店",3
250561052,25.003211654,121.51085062,"活力泉源早餐店",1
1755428,25.02049859,121.532852397,"L'Atelier 貝式邏輯法式烘焙",11
78260817,24.98773617,121.551704278,"全聯福利中心 永建店",1
264697463,25.000054386,121.481344737,"NU pasta 中和員山店",2
538117,25.026052897,121.534594537,"MOS Burger",5
2067761,25.051837932,121.510312557,"7-11 塔城店",4
75570075,25.12055,121.467294,"全家 Family Mart",10
106020445,25.026963718,121.484817372,"Huacui Bridge",2
146766718,25.049253175,121.520855832,"日藥本舖",2
20302153,25.030139,121.56184,"溱鍋",1
885417,25.056843383,121.486655474,"好樂迪重新店",50
14121975,25.047165063,121.522311264,"TAV Cafe 藝術村餐坊",65
28685725,25.069145979,121.589755761,"The Spring Service Apartment",78
251902338,25.075146699,121.521363524,"劍潭捷運站",2
98899983,25.0287024,121.576957232,"信義香榭",3
10655177,25.104930898,121.524524852,"Lush- Sogo",1
39226084,25.03113091,121.551682949,"101% Cafe",2
181583116,25.059614,121.533821,"入內 Zoono",11
276586055,25.063413657,121.528240512,"台北小巨蛋",4
85238268,25.062829971,121.524635315,"Vino Vive",2
1784309,25.033787452,121.531920433,"MATSUSEI 松青超市 信義店",12
251168315,25.058168349,121.544191172,"【地標】1010湘 台北復北店",8
47327933,25.082142047,121.565863599,"翹翹板小屋",16
11812529,25.036053518,121.545899423,"泰美！泰國原始料理！",150
7878422,25.029171943,121.539049225,"明德素食自助餐",6
116244,24.997967668,121.485462827,"遊戲橘子",108
52285819,25.105912093,121.524407758,"DBS星展銀行天母分行",6
12088319,25.130977418,121.503540713,"大豐公園網球場",3
71228,25.045033,121.514926,"Helen Coffee",1
199780,25.052340204,121.527755149,"金車文藝中心",16
379946,25.034338371,121.526593503,"Hotel 73 Taipei",96
157936166,25.095957645,121.524959774,"麗嬰房",2
102542704,25.023100125,121.470163409,"Air Hair Salon 概念館",3
5526883,25.038914344,121.528537378,"勺勺客陝西餐館",52
86295439,25.040192,121.534972,"詠豐堂 Eihodo",6
17781177,25.051680183,121.563767086,"Bank Of taiwan",1
140738705,25.035053,121.563312,"Taipei 101 VIP club 6F",11
241813863,25.054147464,121.545892631,"JOLLY手工釀啤酒+泰食餐廳",22
266517388,24.954029134,121.50458359,"財團法人天主教耕莘醫院安康分院",1
141723645,25.06287705,121.513651276,"捷運大橋頭公車站",15
119881875,25.055757092,121.539103012,"北平楊順順小館",4
1951151,25.120292188,121.520404167,"台北榮民總醫院 Taipei Veteran General Hospital",8
5527395,25.042001381,121.531802416,"Starbucks 星巴克",183
22961771,25.081909129,121.519846553,"阿郎塩酥雞",1
254658618,25.029274237,121.505908157,"南機場夜市-山內雞肉飯",7
8404034,25.063205769,121.612980593,"中研院體育館",2
96539926,25.04078,121.61245,"PyCon Taiwan 2013",1
5015645,24.979968717,121.552077776,"全球工業總部",6
267931334,25.048992187,121.515484226,"台北市市民大道",3
64657538,25.082943274,121.563845122,"陶阪屋內湖店",64
73655135,25.043789,121.543794,"DNA dance studio",7
2550946,25.039832941,121.504169551,"永富冰淇淋",125
251097167,24.997315746,121.583085781,"台北市立動物園新光特展館",1
261521947,25.03867807,121.536727693,"仁愛路豪宅-帝寶",4
1289153,25.052798,121.520114,"新光3越南西店二館",5
1475615,25.051722755,121.561498439,"台灣大哥大",2
218484364,25.048794053,121.561841837,"BAC Chocolate World",116
3336055,24.980346,121.517294,"金時代自助洗車",43
36979083,25.050821106,121.565456774,"勁麵疙瘩手工麵館",9
3054387,25.035458406,121.569310034,"克緹大樓",107
270565983,25.0870668,121.462988301,"福容海水浴場",1
1830888,25.095531,121.526191,"鮮芋仙",8
918779,24.999784,121.539549,"偵軒精緻日式小火鍋",16
66498,25.040934,121.544659,"雲南小鎮滇湎料理",1
250354801,24.9995049,121.5247772,"陽明山擎天岡",2
1364289,25.004358602,121.517077088,"艾隆義大利麵",5
560837,25.074244765,121.572685163,"學學文創",1
1221530,25.135024396,121.544445132,"花卉試驗中心",232
292001379,25.043399799,121.538992563,"台北的家^o^",1
241896148,25.040863924,121.548803096,"Lavaza 老咖啡",2
103549903,25.00079994,121.472640266,"悠活牙醫",2
46128221,25.032621,121.544609,"珍饌正傳統四神湯",1
269521108,25.122955426,121.495573866,"法鼓山農禪寺水月道場",1
69817755,25.003268,121.519779,"Marc By Marc Jacobs",6
869909,25.044743715,121.55012446,"忍者龍膽石斑專賣店",31
3917259,25.05432767,121.488064,"全聯福利中心(三重集美店)",2
17932879,25.025786847,121.536040306,"大安森林公園公車站",66
2213833,25.000792,121.554404,"爭鮮",7
65196650,25.060634015,121.513316688,"第一銀行 First Bank 資訊室",7
83102986,25.059916627,121.60119046,"統振",2
65542712,25.01230066,121.59171588,"富德公墓",10
181616386,25.041023,121.569673,"一品活蝦 市府ㄉㄧㄢˋ",1
18301146,25.089887432,121.542940664,"劍南山夜景平台",79
274150822,25.06734585,121.533352858,"中山高速公路奔馳中",1
217944893,25.030990736,121.528691455,"吳留手串燒居酒屋-麗水店",93
302785,25.133778,121.535442,"八卦夜未眠",416
36955212,25.019388834,121.535681742,"小企鵝出沒的地方",4
169555253,25.004939264,121.5427093,"HomeSweetHome",1
262803683,25.02774,121.468635,"Fuku Brunch",2
10826299,25.051667008,121.563449366,"Black Bar cafe",1
117801,25.012856457,121.542434692,"台灣科技大學第1宿舍",1
253665612,25.044021386,121.519199717,"立法院大門口",9
328542,25.021598922,121.548309294,"Dell",8
16440606,25.052042,121.559316,"Taipei Fullerton Hotel East",2
88951482,24.987623215,121.554405212,"木柵仙跡岩",12
626905,25.116234937,121.528511572,"吃吃看 a place of good taster",31
241379148,25.032990257,121.555655402,"Digout",3
265734472,25.080376173,121.590411458,"Niehu Taipei Taiwan",7
2346441,25.036767524,121.5427093,"大安路一段",43
242824311,25.05061686,121.51886163,"當代藝術館",75
68966503,25.074293216,121.57823074,"內湖湖光國宅",5
43324,25.058718744,121.563678947,"民生社區圓環",30
5434739,24.990556759,121.541909278,"炒飯王",5
278614403,25.035031847,121.569030767,"马辣顶级麻辣火锅",7
262725477,25.05070876,121.5249942,"西門町台北城",1
218484768,25.032735804,121.528367759,"永康街牛肉麵",3
1208103,25.016039296,121.495384958,"華中河濱公園",499
155055647,25.034294,121.562859,"PAPAGO！世貿一館",3
207323657,24.95618002,121.534358561,"Livia's Kitchen",2
96231173,25.024558454,121.549089759,"歐客佬咖啡農場",4
886268,25.010948546,121.528913024,"PIPE Live Music",755
390682,25.035406,121.557732,"85 C Coffee",5
217094792,25.072043725,121.589920056,"內湖三軍國軍醫院",10
234690,25.014866259,121.538045681,"丹堤咖啡 台大店",19
130225809,25.055011314,121.528060734,"華北餃子館",7
202481463,25.048179299,121.546614551,"7-11清愿門市",2
6655388,25.019588,121.543038,"台大新聞所",20
41223884,24.998587,121.516607,"永和豆漿",8
2974536,25.068068458,121.522307396,"敦煌書局",4
15467830,25.099037,121.524784,"台灣第一家鹹酥雞",8
285282428,25.018727724,121.465034181,"Show壽司創意料理",2
246404972,25.02917539,121.531863372,"青田街",15
91438189,24.989411974,121.542290548,"梅‧關東煮",44
91591883,25.05786824,121.521017539,"順成蛋糕",2
264757377,25.026652903,121.518964097,"林志玲家樓下",1
31662268,25.035218768,121.51879823,"Experimental Theater 國家劇院實驗劇場",43
12758268,25.043977971,121.507140111,"uniqlo西門店",13
1003242,25.042964,121.504963,"西門金峰魯肉飯鼎邊趖",1
3748728,25.104750553,121.522690357,"Eat! Burger",45
461301,25.029277,121.553965,"the villa",15
11077611,25.059729929,121.550266743,"富錦街口",68
13466715,25.115734656,121.515876261,"保一警隊石牌營區",55
36323682,25.044011248,121.52167891,"青島排骨",7
2941413,25.052019171,121.530089494,"千里行",54
137319,25.069457658,121.611987431,"東湖麥當勞",81
117901985,25.047654975,121.562100443,"紐音特冰上世界",5
302253,25.045997949,121.518161455,"天成大飯店 Cosmos Hotel",468
131269608,25.043815613,121.538696289,"慈濟台北分會",3
87071621,25.033816765,121.537560632,"勤美樸真",10
63918210,25.008468237,121.511125113,"咖喱王子",2
251991487,25.069310669,121.576193686,"SOGO(忠孝&復興)",3
28779488,25.006987515,121.475942659,"板橋監理站",6
8133436,25.047887,121.559169,"無骨鹽酥雞",1
35716329,25.110387262,121.530686088,"天湯御品火鍋",10
6251007,25.036938,121.567045,"Roots Cafe",5
34600493,25.110814,121.520803,"綠野鮮蹤",9
11325604,25.073648049,121.611194878,"My Home",10
166566,24.99804107,121.485736858,"Cama Cafe",17
64692169,25.05539,121.510851,"正發青草舖",12
810539,25.0401,121.5166,"Taipei Guest House",136
123738341,24.988507798,121.533618831,"早餐店",1
89761385,25.040964144,121.506536317,"大順大飯店",47
7165277,25.035997392,121.515113082,"台北市立教育大學附設實驗國民小學",5
597148,25.019043524,121.466887576,"板橋油庫口蚵仔麵線",165
146784102,25.068047,121.499998,"鍋士無雙 三重店",7
26832943,24.977127066,121.565561905,"木柵河堤",37
42065408,25.066755295,121.493743896,"陳 古早 黑砂糖剉冰",7
161967832,25.004572514,121.484134197,"溪湖羊肉爐",2
3198112,25.046289147,121.5246701,"大鵬灣食堂",12
161350433,25.13759613,121.497367859,"北投文化郵局",2
22672,25.060843044,121.559586425,"朵兒咖啡館",846
1530004,25.087140978,121.497762849,"淡水河邊的小船",15
221375246,25.119430391,121.518979488,"台北榮總醫院",6
42097371,25.039746,121.574059,"鮮麵屋",2
8258519,25.045996858,121.516116933,"Caesar Park Hotel (Taipei)",13
245724506,25.031920064,121.469336892,"在我溫暖的家",1
2894945,25.065867415,121.516471453,"拉亞漢堡昌吉店",16
80058248,25.057846069,121.520210266,"肉粽王",1
263917214,25.046791393,121.542803617,"吳留手串燒",4
264936919,25.076852789,121.552731652,"美堤河濱公園籃球場",1
135678717,25.054160918,121.600271046,"北部流行音樂中心 Taipei Pop Music Center",3
158416859,24.999266218,121.55678263,"三犇精燉牛肉麵",2
6259420,25.083961716,121.557425901,"和民居食屋-美麗華店",124
6727847,25.030973787,121.474364389,"石頭肉圓",3
239340655,24.997378205,121.574607425,"木柵動物園河濱對岸",4
111394328,25.001396918,121.521508235,"Goodwell Cheese House",2
63716968,25.001229,121.539249,"阿輝牛肉城",9
252743563,25.05497413,121.527382478,"台北市，台湾",8
252772257,25.081702345,121.573428107,"The SOUP   蔬店 。手作鍋物",6
38635027,25.030063,121.557689,"BIOS Monthly",34
39662542,25.031391496,121.565542396,"Sweet Home",4
268914003,25.066160238,121.52500326,"Sonoma Grill 帝國牛排館",4
34189969,24.991765352,121.508451111,"Couch",3
124508190,25.024097,121.563588,"A&A®🏠RESIDENT Tw",1
119183208,25.056918,121.514826,"蛋蛋辣翻天麻辣燙",4
623677,25.029349596,121.550868085,"瓦城 Thai Town",56
7310462,25.028162,121.54653,"四維紅麵線",2
114691342,25.080971647,121.568162742,"Malu 圓‧創藝和食",67
1590255,25.022648,121.52597,"ST音樂教室",2
121248455,25.026109291,121.549730851,"北無雙 KITA MUSO",9
2209217,24.995827,121.57684,"貓空纜車 Maokong Gondola",16
74376750,25.051124,121.536839,"千群台食文化料理",3
279621070,25.000132658,121.491297416,"映象太和",1
248512,25.040128584,121.556693441,"雅朵碟子",28
232162075,25.043175806,121.542784563,"大安公園",2
36771035,24.981921,121.537649,"嘉義雞肉飯",2
104325832,25.038002,121.556154,"哈佛牙科",2
242821631,25.12555673,121.4671047,"淡水.",3
241933137,25.031337456,121.561890031,"好，丘 Simple life",12
268792718,25.0342049,121.5632505,"Taipei 101 Mos Burger",2
1386405,25.044951,121.522163,"十二廚",4
125320,25.058206483,121.613167226,"怡客咖啡 Ikari Coffee 南港店",10
16488986,25.046771,121.550493,"台北田徑場 400m 主場",10
235288755,25.125066562,121.469814527,"皮卡丘總部",1
49147769,25.035976367,121.566186183,"Shaburi",4
106165755,25.024847957,121.555673328,"Bob Wun Daye",3
234822353,25.134855543,121.539700457,"文化大孝館",3
34279,25.002427347,121.468874753,"85度C",16
977896,25.018914517,121.533680161,"Adidas Outlet",3
3588301,25.002953322,121.49115016,"華隆經貿廣場大樓",3
154961545,25.04964,121.53623,"Hearst Magazines Taiwan",4
23976088,25.0566402,121.542227058,"白色階梯極緻撮影",12
225865758,25.078818174,121.575787933,"內湖高工-實習工場",1
